# 
# Header Description:
# 
# Version: v2.0.0.1 Platform: 9 Manufacturer: HUAWEI Model: COR-AL00
# 
# Raw,ElapsedRealtimeMillis,TimeNanos,LeapSecond,TimeUncertaintyNanos,FullBiasNanos,BiasNanos,BiasUncertaintyNanos,DriftNanosPerSecond,DriftUncertaintyNanosPerSecond,HardwareClockDiscontinuityCount,Svid,TimeOffsetNanos,State,ReceivedSvTimeNanos,ReceivedSvTimeUncertaintyNanos,Cn0DbHz,PseudorangeRateMetersPerSecond,PseudorangeRateUncertaintyMetersPerSecond,AccumulatedDeltaRangeState,AccumulatedDeltaRangeMeters,AccumulatedDeltaRangeUncertaintyMeters,CarrierFrequencyHz,CarrierCycles,CarrierPhase,CarrierPhaseUncertainty,MultipathIndicator,SnrInDb,ConstellationType,AgcDb
# 
# Fix,Provider,Latitude,Longitude,Altitude,Speed,Accuracy,(UTC)TimeInMs
# 
# Nav,Svid,Type,Status,MessageId,Sub-messageId,Data(Bytes)
# 
Raw,132807737,1327853470766762752,18,,-2299,-0.0363708497211519,333.564095198152,231.05718023099834,0.0,0,17,220.0,1,617139,400,0.0,655.2460268663708,0.1,0,0.0,0.0,1.57542003E9,,,,0,,1,
Raw,132807740,1327853470766762752,18,,-2299,-0.0363708497211519,333.564095198152,231.05718023099834,0.0,0,19,220.0,1,800586,400,0.0,607.1594648470636,0.1,0,0.0,0.0,1.57542003E9,,,,0,,1,
Raw,132807755,1,,,-9223372036854775808,,,,,0,24,0.0,17,1,1,30.0,-700.0,1.0,1,1.0,1.0,1.57500006E9,,0.0,1.0,0,1.0,1,1.0
Raw,132807768,1,,,-9223372036854775808,,,,,0,24,0.0,17,1,1,30.0,-700.0,1.0,1,1.0,1.0,1.57500006E9,,0.0,1.0,0,1.0,1,1.0
Fix,gps,34.183924,117.186067,0.000000,0.000000,30.000000,1643818252550
Raw,132808688,1327853471766762752,18,,-2299,-0.0363708497211519,333.564095198152,231.05718023099834,0.0,0,17,220.0,1,614858,400,0.0,658.1114815198816,0.1,0,0.0,0.0,1.57542003E9,,,,0,,1,
Raw,132808689,1327853471766762752,18,,-2299,-0.0363708497211519,333.564095198152,231.05718023099834,0.0,0,19,220.0,1,798468,400,0.0,606.4773703983519,0.1,0,0.0,0.0,1.57542003E9,,,,0,,1,
Raw,132809691,1327853472766762752,18,,-2299,-0.0363708497211519,333.564095198152,231.05718023099834,0.0,0,17,220.0,3,8612740,10,33.0,659.4526415050495,0.1,0,0.0,0.0,1.57542003E9,,,,0,,1,
Raw,132809692,1327853472766762752,18,,-2299,-0.0363708497211519,333.564095198152,231.05718023099834,0.0,0,19,220.0,3,13796589,10,36.0,606.3907378236763,0.1,0,0.0,0.0,1.57542003E9,,,,0,,1,
Raw,132811721,1327853474766762752,18,,-2299,-0.0363708497211519,333.564095198152,231.05718023099834,0.0,0,6,220.0,33,8791323,25,26.0,-475.4760718368853,0.1,0,0.0,0.0,1.59975002E9,,,,0,,3,
Raw,132811722,1327853474766762752,18,,-2299,-0.0363708497211519,333.564095198152,231.05718023099834,0.0,0,19,220.0,1,587410,400,0.0,577.2419896406099,0.1,0,0.0,0.0,1.60368755E9,,,,0,,3,
Raw,132811723,1327853474766762752,18,,-2299,-0.0363708497211519,333.564095198152,231.05718023099834,0.0,0,17,220.0,3,8608372,10,33.0,658.9756140368991,0.1,0,0.0,0.0,1.57542003E9,,,,0,,1,
Raw,132811724,1327853474766762752,18,,-2299,-0.0363708497211519,333.564095198152,231.05718023099834,0.0,0,19,220.0,3,13792526,10,37.0,607.1035374887288,0.1,0,0.0,0.0,1.57542003E9,,,,0,,1,
Raw,132811725,1327853474766762752,18,,-2299,-0.0363708497211519,333.564095198152,231.05718023099834,0.0,0,1,220.0,1,473607,400,0.0,58.40396724068583,0.1,0,0.0,0.0,1.56109798E9,,,,0,,5,
Raw,132812699,1327853475766762752,18,,-2299,-0.0363708497211519,333.564095198152,231.05718023099834,0.0,0,6,220.0,33,8792816,25,25.0,-477.0800847252643,0.1,0,0.0,0.0,1.59975002E9,,,,0,,3,
Raw,132812700,1327853475766762752,18,,-2299,-0.0363708497211519,333.564095198152,231.05718023099834,0.0,0,19,220.0,1,585779,400,0.0,572.4388932068994,0.1,0,0.0,0.0,1.60368755E9,,,,0,,3,
Raw,132812701,1327853475766762752,18,,-2299,-0.0363708497211519,333.564095198152,231.05718023099834,0.0,0,5,220.0,1,217823,400,0.0,-444.00510459090583,0.1,0,0.0,0.0,1.57542003E9,,,,0,,1,
Raw,132812702,1327853475766762752,18,,-2299,-0.0363708497211519,333.564095198152,231.05718023099834,0.0,0,17,220.0,3,8606182,10,33.0,659.0238650911488,0.1,0,0.0,0.0,1.57542003E9,,,,0,,1,
Raw,132812703,1327853475766762752,18,,-2299,-0.0363708497211519,333.564095198152,231.05718023099834,0.0,0,19,220.0,3,13790497,10,37.0,607.0015523058828,0.1,0,0.0,0.0,1.57542003E9,,,,0,,1,
Raw,132812704,1327853475766762752,18,,-2299,-0.0363708497211519,333.564095198152,231.05718023099834,0.0,0,1,220.0,259,473590,10,28.0,68.25895428531572,0.1,0,0.0,0.0,1.56109798E9,,,,0,,5,
Raw,132813701,1327853476766762752,18,,-2299,-0.0363708497211519,333.564095198152,231.05718023099834,0.0,0,6,220.0,33,8794388,25,26.0,-476.01458244752604,0.1,0,0.0,0.0,1.59975002E9,,,,0,,3,
Raw,132813701,1327853476766762752,18,,-2299,-0.0363708497211519,333.564095198152,231.05718023099834,0.0,0,19,220.0,1,585127,400,0.0,567.2939495987799,0.1,0,0.0,0.0,1.60368755E9,,,,0,,3,
Raw,132813702,1327853476766762752,18,,-2299,-0.0363708497211519,333.564095198152,231.05718023099834,0.0,0,5,220.0,3,11219595,25,23.0,-443.8866701850202,0.1,0,0.0,0.0,1.57542003E9,,,,0,,1,
Raw,132813702,1327853476766762752,18,,-2299,-0.0363708497211519,333.564095198152,231.05718023099834,0.0,0,17,220.0,3,8603986,10,34.0,659.0172854019329,0.1,0,0.0,0.0,1.57542003E9,,,,0,,1,
Raw,132813703,1327853476766762752,18,,-2299,-0.0363708497211519,333.564095198152,231.05718023099834,0.0,0,19,220.0,3,13788469,10,37.0,607.0322575222235,0.1,0,0.0,0.0,1.57542003E9,,,,0,,1,
Raw,132813703,1327853476766762752,18,,-2299,-0.0363708497211519,333.564095198152,231.05718023099834,0.0,0,1,220.0,259,473372,10,28.0,68.30026879905276,0.1,0,0.0,0.0,1.56109798E9,,,,0,,5,
Raw,132814729,1327853477766762752,18,,-2299,-0.0363708497211519,333.564095198152,231.05718023099834,0.0,0,6,220.0,33,8795965,25,26.0,-475.25145243779457,0.1,0,0.0,0.0,1.59975002E9,,,,0,,3,
Raw,132814731,1327853477766762752,18,,-2299,-0.0363708497211519,333.564095198152,231.05718023099834,0.0,0,19,220.0,1,586105,400,0.0,555.3838791357632,0.1,0,0.0,0.0,1.60368755E9,,,,0,,3,
Raw,132814732,1327853477766762752,18,,-2299,-0.0363708497211519,333.564095198152,231.05718023099834,0.0,0,5,220.0,3,11221022,25,24.0,-443.6980524274986,0.1,0,0.0,0.0,1.57542003E9,,,,0,,1,
Raw,132814732,1327853477766762752,18,,-2299,-0.0363708497211519,333.564095198152,231.05718023099834,0.0,0,17,220.0,3,8601789,10,34.0,659.179584402591,0.1,0,0.0,0.0,1.57542003E9,,,,0,,1,
Raw,132814733,1327853477766762752,18,,-2299,-0.0363708497211519,333.564095198152,231.05718023099834,0.0,0,19,220.0,3,13786440,10,37.0,607.2197786648758,0.1,0,0.0,0.0,1.57542003E9,,,,0,,1,
Raw,132814734,1327853477766762752,18,,-2299,-0.0363708497211519,333.564095198152,231.05718023099834,0.0,0,1,220.0,259,473141,10,29.0,69.02769934449408,0.1,0,0.0,0.0,1.56109798E9,,,,0,,5,
Raw,132815704,1327853478766762752,18,,-2299,-0.0363708497211519,333.564095198152,231.05718023099834,0.0,0,6,220.0,33,8797578,25,26.0,-474.6611065812098,0.1,0,0.0,0.0,1.59975002E9,,,,0,,3,
Raw,132815707,1327853478766762752,18,,-2299,-0.0363708497211519,333.564095198152,231.05718023099834,0.0,0,5,220.0,7,691222465,25,26.0,-443.78687823191285,0.1,0,0.0,0.0,1.57542003E9,,,,0,,1,
Raw,132815708,1327853478766762752,18,,-2299,-0.0363708497211519,333.564095198152,231.05718023099834,0.0,0,17,220.0,7,688599588,10,34.0,659.1543622605968,0.1,0,0.0,0.0,1.57542003E9,,,,0,,1,
Raw,132815709,1327853478766762752,18,,-2299,-0.0363708497211519,333.564095198152,231.05718023099834,0.0,0,19,220.0,7,693784416,10,37.0,607.2175854351372,0.1,0,0.0,0.0,1.57542003E9,,,,0,,1,
Raw,132815710,1327853478766762752,18,,-2299,-0.0363708497211519,333.564095198152,231.05718023099834,0.0,0,1,220.0,259,472914,10,29.0,68.69275667955456,0.1,0,0.0,0.0,1.56109798E9,,,,0,,5,
Raw,132815710,1327853478766762752,18,,-2299,-0.0363708497211519,333.564095198152,231.05718023099834,0.0,0,19,220.0,33,7577181,400,14.0,579.692373168095,0.1,0,0.0,0.0,1.60368755E9,,,,0,,3,
Raw,132816696,1327853479766762752,18,,-2299,-0.0363708497211519,333.564095198152,231.05718023099834,0.0,0,6,220.0,33,8799163,25,26.0,-475.1247440588203,0.1,0,0.0,0.0,1.59975002E9,,,,0,,3,
Raw,132816698,1327853479766762752,18,,-2299,-0.0363708497211519,333.564095198152,231.05718023099834,0.0,0,5,220.0,16399,317479691223929,25,27.0,-443.58619771082886,0.1,0,0.0,0.0,1.57542003E9,,,,0,,1,
Raw,132816699,1327853479766762752,18,,-2299,-0.0363708497211519,333.564095198152,231.05718023099834,0.0,0,17,220.0,16399,317479688597384,10,35.0,659.2673135921359,0.1,0,0.0,0.0,1.57542003E9,,,,0,,1,
Raw,132816700,1327853479766762752,18,,-2299,-0.0363708497211519,333.564095198152,231.05718023099834,0.0,0,19,220.0,16399,317479693782391,10,37.0,607.3173773882445,0.1,0,0.0,0.0,1.57542003E9,,,,0,,1,
Raw,132816701,1327853479766762752,18,,-2299,-0.0363708497211519,333.564095198152,231.05718023099834,0.0,0,1,220.0,259,472688,10,29.0,68.46110029895763,0.1,0,0.0,0.0,1.56109798E9,,,,0,,5,
Raw,132816702,1327853479766762752,18,,-2299,-0.0363708497211519,333.564095198152,231.05718023099834,0.0,0,19,220.0,33,7575260,25,23.0,582.2892626274696,0.1,0,0.0,0.0,1.60368755E9,,,,0,,3,
Raw,132817707,1327853480766762752,18,,482846,0.365746543451678,333.564095198152,230.55774827151387,0.0,0,6,220.0,33,8800754,25,26.0,-475.3292053067106,0.1,0,0.0,0.0,1.59975002E9,,,,0,,3,
Raw,132817708,1327853480766762752,18,,482846,0.365746543451678,333.564095198152,230.55774827151387,0.0,0,5,220.0,16399,317480691225393,10,28.0,-443.54671957553364,0.1,0,0.0,0.0,1.57542003E9,,,,0,,1,
Raw,132817709,1327853480766762752,18,,482846,0.365746543451678,333.564095198152,230.55774827151387,0.0,0,17,220.0,16399,317480688595179,10,36.0,659.2717000516132,0.1,0,0.0,0.0,1.57542003E9,,,,0,,1,
Raw,132817710,1327853480766762752,18,,482846,0.365746543451678,333.564095198152,230.55774827151387,0.0,0,19,220.0,16399,317480693780365,10,37.0,607.3908505844884,0.1,0,0.0,0.0,1.57542003E9,,,,0,,1,
Raw,132817710,1327853480766762752,18,,482846,0.365746543451678,333.564095198152,230.55774827151387,0.0,0,1,220.0,259,472461,10,29.0,68.29436672566176,0.1,0,0.0,0.0,1.56109798E9,,,,0,,5,
Raw,132817711,1327853480766762752,18,,482846,0.365746543451678,333.564095198152,230.55774827151387,0.0,0,19,220.0,33,7573349,25,24.0,584.1794764153772,0.1,0,0.0,0.0,1.60368755E9,,,,0,,3,
Fix,gps,34.185283,117.185699,126.772223,0.813580,19.000000,1643818262766
Fix,gps,34.185361,117.185754,128.285217,0.000000,19.000000,1643818263766
Raw,132818723,1327853481766762752,18,,483073,0.8104250658652745,333.564095198152,240.03626669379048,0.0,0,6,220.0,33,8802339,25,26.0,-475.65173572591783,0.1,0,0.0,0.0,1.59975002E9,,,,0,,3,
Raw,132818723,1327853481766762752,18,,483073,0.8104250658652745,333.564095198152,240.03626669379048,0.0,0,5,220.0,16399,317481691226855,10,30.0,-443.3690679667052,0.1,0,0.0,0.0,1.57542003E9,,,,0,,1,
Raw,132818724,1327853481766762752,18,,483073,0.8104250658652745,333.564095198152,240.03626669379048,0.0,0,17,220.0,16399,317481688592976,10,35.0,659.3780716939364,0.1,0,0.0,0.0,1.57542003E9,,,,0,,1,
Raw,132818724,1327853481766762752,18,,483073,0.8104250658652745,333.564095198152,240.03626669379048,0.0,0,19,220.0,16399,317481693778339,5,38.0,607.5081883755047,0.1,0,0.0,0.0,1.57542003E9,,,,0,,1,
Raw,132818725,1327853481766762752,18,,483073,0.8104250658652745,333.564095198152,240.03626669379048,0.0,0,1,220.0,259,472230,10,29.0,68.34305883113754,0.1,0,0.0,0.0,1.56109798E9,,,,0,,5,
Raw,132818725,1327853481766762752,18,,483073,0.8104250658652745,333.564095198152,240.03626669379048,0.0,0,19,220.0,33,7571415,25,22.0,585.7852963354993,0.1,0,0.0,0.0,1.60368755E9,,,,0,,3,
Raw,132819710,1327853482766277376,18,,-2299,-0.0363708497211519,333.564095198152,238.20616680616595,0.0,0,6,220.0,33,8803930,25,26.0,-475.3954392320835,0.1,0,0.0,0.0,1.59975002E9,,,,0,,3,
Raw,132819711,1327853482766277376,18,,-2299,-0.0363708497211519,333.564095198152,238.20616680616595,0.0,0,5,220.0,16399,317482691228325,10,30.0,-443.3822273451369,0.1,0,0.0,0.0,1.57542003E9,,,,0,,1,
Raw,132819714,1327853482766277376,18,,-2299,-0.0363708497211519,333.564095198152,238.20616680616595,0.0,0,17,220.0,16399,317482688590783,10,33.0,659.2618305177893,0.1,0,0.0,0.0,1.57542003E9,,,,0,,1,
Raw,132819715,1327853482766277376,18,,-2299,-0.0363708497211519,333.564095198152,238.20616680616595,0.0,0,19,220.0,16399,317482693776313,10,37.0,607.5487631256692,0.1,0,0.0,0.0,1.57542003E9,,,,0,,1,
Raw,132819717,1327853482766277376,18,,-2299,-0.0363708497211519,333.564095198152,238.20616680616595,0.0,0,1,220.0,259,472003,10,29.0,68.36814264304931,0.1,0,0.0,0.0,1.56109798E9,,,,0,,5,
Raw,132819720,1327853482766277376,18,,-2299,-0.0363708497211519,333.564095198152,238.20616680616595,0.0,0,19,220.0,33,7569519,25,20.0,587.4399515662514,0.1,0,0.0,0.0,1.60368755E9,,,,0,,3,
Fix,gps,34.185361,117.185754,0.000000,0.000000,5666.354492,1643818264766
Fix,gps,34.185361,117.185754,0.000000,0.000000,5666.354492,1643818265766
Raw,132820708,1327853484000000000,18,,-2088,-0.56992537616361,333.564095198152,234.39619352662646,0.0,0,6,220.0,33,2528319,25,25.0,-474.93180175447304,0.1,0,0.0,0.0,1.59975002E9,,,,0,,3,
Raw,132820711,1327853484000000000,18,,-2088,-0.56992537616361,333.564095198152,234.39619352662646,0.0,0,5,220.0,16399,317483924952602,10,30.0,-443.4096427168697,0.1,0,0.0,0.0,1.57542003E9,,,,0,,1,
Raw,132820712,1327853484000000000,18,,-2088,-0.56992537616361,333.564095198152,234.39619352662646,0.0,0,17,220.0,16399,317483922311393,10,33.0,659.3824581534136,0.1,0,0.0,0.0,1.57542003E9,,,,0,,1,
Raw,132820713,1327853484000000000,18,,-2088,-0.56992537616361,333.564095198152,234.39619352662646,0.0,0,19,220.0,16399,317483927497087,10,37.0,607.6419753895607,0.1,0,0.0,0.0,1.57542003E9,,,,0,,1,
Raw,132820713,1327853484000000000,18,,-2088,-0.56992537616361,333.564095198152,234.39619352662646,0.0,0,1,220.0,259,14194575,10,29.0,68.31649950087802,0.1,0,0.0,0.0,1.56109798E9,,,,0,,5,
Raw,132820714,1327853484000000000,18,,-2088,-0.56992537616361,333.564095198152,234.39619352662646,0.0,0,19,220.0,33,1290399,25,22.0,589.6691398632366,0.1,0,0.0,0.0,1.60368755E9,,,,0,,3,
Fix,gps,34.185361,117.185754,0.000000,0.000000,5666.354492,1643818266766
Raw,132822021,1327853485000000000,18,,-1754,-0.09624937783951282,333.564095198152,235.12456404247922,0.0,0,6,220.0,33,2530327,25,25.0,-474.8396502061281,0.1,0,0.0,0.0,1.59975002E9,,,,0,,3,
Raw,132822023,1327853485000000000,18,,-1754,-0.09624937783951282,333.564095198152,235.12456404247922,0.0,0,5,220.0,16399,317484924954448,10,29.0,-443.29888461506926,0.1,0,0.0,0.0,1.57542003E9,,,,0,,1,
Raw,132822025,1327853485000000000,18,,-1754,-0.09624937783951282,333.564095198152,235.12456404247922,0.0,0,17,220.0,16399,317484922308708,10,34.0,659.4778636470437,0.1,0,0.0,0.0,1.57542003E9,,,,0,,1,
Raw,132822026,1327853485000000000,18,,-1754,-0.09624937783951282,333.564095198152,235.12456404247922,0.0,0,19,220.0,16399,317484927494612,10,37.0,607.7121587411966,0.1,0,0.0,0.0,1.57542003E9,,,,0,,1,
Raw,132822027,1327853485000000000,18,,-1754,-0.09624937783951282,333.564095198152,235.12456404247922,0.0,0,1,220.0,259,14194280,10,29.0,68.32387709261678,0.1,0,0.0,0.0,1.56109798E9,,,,0,,5,
Raw,132822027,1327853485000000000,18,,-1754,-0.09624937783951282,333.564095198152,235.12456404247922,0.0,0,19,220.0,33,1287982,25,21.0,590.160365634866,0.1,0,0.0,0.0,1.60368755E9,,,,0,,3,
Fix,gps,34.185361,117.185754,0.000000,0.000000,5666.354492,1643818267766
Raw,132822995,1327853486000000000,18,,-1481,-0.975434607379384,333.564095198152,231.9507442020707,0.0,0,6,220.0,33,2531912,25,26.0,-474.5142400510351,0.1,0,0.0,0.0,1.59975002E9,,,,0,,3,
Raw,132822996,1327853486000000000,18,,-1481,-0.975434607379384,333.564095198152,231.9507442020707,0.0,0,5,220.0,16399,317485924955925,10,28.0,-443.2177351147402,0.1,0,0.0,0.0,1.57542003E9,,,,0,,1,
Raw,132822997,1327853486000000000,18,,-1481,-0.975434607379384,333.564095198152,231.9507442020707,0.0,0,17,220.0,16399,317485922306511,10,33.0,659.4690907280892,0.1,0,0.0,0.0,1.57542003E9,,,,0,,1,
Raw,132822998,1327853486000000000,18,,-1481,-0.975434607379384,333.564095198152,231.9507442020707,0.0,0,19,220.0,16399,317485927492585,10,37.0,607.7373808831908,0.1,0,0.0,0.0,1.57542003E9,,,,0,,1,
Raw,132822999,1327853486000000000,18,,-1481,-0.975434607379384,333.564095198152,231.9507442020707,0.0,0,1,220.0,259,14194050,10,30.0,68.33715675774654,0.1,0,0.0,0.0,1.56109798E9,,,,0,,5,
Raw,132823002,1327853486000000000,18,,-1481,-0.975434607379384,333.564095198152,231.9507442020707,0.0,0,19,220.0,33,1285997,25,21.0,589.1032247929968,0.1,0,0.0,0.0,1.60368755E9,,,,0,,3,
Fix,gps,34.185361,117.185754,0.000000,0.000000,5666.354492,1643818268766
Raw,132823985,1327853487000000000,18,,-1247,-0.2821458042787981,333.564095198152,237.07698353697322,0.0,0,6,220.0,33,2533497,25,26.0,-474.7734162807552,0.1,0,0.0,0.0,1.59975002E9,,,,0,,3,
Raw,132823986,1327853487000000000,18,,-1247,-0.2821458042787981,333.564095198152,237.07698353697322,0.0,0,5,220.0,16399,317486924957406,25,27.0,-443.1398754590191,0.1,0,0.0,0.0,1.57542003E9,,,,0,,1,
Raw,132823987,1327853487000000000,18,,-1247,-0.2821458042787981,333.564095198152,237.07698353697322,0.0,0,17,220.0,16399,317486922304308,10,32.0,659.5008925592992,0.1,0,0.0,0.0,1.57542003E9,,,,0,,1,
Raw,132823987,1327853487000000000,18,,-1247,-0.2821458042787981,333.564095198152,237.07698353697322,0.0,0,19,220.0,16399,317486927490561,10,37.0,607.8393660660367,0.1,0,0.0,0.0,1.57542003E9,,,,0,,1,
Raw,132823988,1327853487000000000,18,,-1247,-0.2821458042787981,333.564095198152,237.07698353697322,0.0,0,1,220.0,259,14193822,10,30.0,68.4714289273919,0.1,0,0.0,0.0,1.56109798E9,,,,0,,5,
Raw,132823988,1327853487000000000,18,,-1247,-0.2821458042787981,333.564095198152,237.07698353697322,0.0,0,19,220.0,33,1284035,25,24.0,587.5979481594654,0.1,0,0.0,0.0,1.60368755E9,,,,0,,3,
Raw,132823989,1327853487000000000,18,,-1247,-0.2821458042787981,333.564095198152,237.07698353697322,0.0,0,20,220.0,3,10547372,400,14.0,-173.94285734044388,0.1,0,0.0,0.0,1.57542003E9,,,,0,,1,
Fix,gps,34.185361,117.185754,0.000000,0.000000,5666.354492,1643818269766
Raw,132825075,1327853488000000000,18,,-1022,-0.13491339098686694,333.564095198152,228.5489392942848,0.0,0,6,220.0,33,2535077,25,27.0,-474.1197162346833,0.1,0,0.0,0.0,1.59975002E9,,,,0,,3,
Raw,132825075,1327853488000000000,18,,-1022,-0.13491339098686694,333.564095198152,228.5489392942848,0.0,0,5,220.0,16399,317487924958883,25,26.0,-443.2287012634333,0.1,0,0.0,0.0,1.57542003E9,,,,0,,1,
Raw,132825076,1327853488000000000,18,,-1022,-0.13491339098686694,333.564095198152,228.5489392942848,0.0,0,17,220.0,16399,317487922302101,10,34.0,659.482250106521,0.1,0,0.0,0.0,1.57542003E9,,,,0,,1,
Raw,132825076,1327853488000000000,18,,-1022,-0.13491339098686694,333.564095198152,228.5489392942848,0.0,0,19,220.0,16399,317487927488533,10,37.0,607.8075642348267,0.1,0,0.0,0.0,1.57542003E9,,,,0,,1,
Raw,132825077,1327853488000000000,18,,-1022,-0.13491339098686694,333.564095198152,228.5489392942848,0.0,0,1,220.0,259,14193599,10,29.0,68.49208618426042,0.1,0,0.0,0.0,1.56109798E9,,,,0,,5,
Raw,132825077,1327853488000000000,18,,-1022,-0.13491339098686694,333.564095198152,228.5489392942848,0.0,0,19,220.0,33,1282080,25,26.0,586.0668175379536,0.1,0,0.0,0.0,1.60368755E9,,,,0,,3,
Raw,132825077,1327853488000000000,18,,-1022,-0.13491339098686694,333.564095198152,228.5489392942848,0.0,0,20,220.0,3,10547573,400,16.0,-170.36569963674992,0.1,0,0.0,0.0,1.57542003E9,,,,0,,1,
Raw,132825078,1327853488000000000,18,,-1022,-0.13491339098686694,333.564095198152,228.5489392942848,0.0,0,7,220.0,259,13804482,10,29.0,374.12505466404156,0.1,0,0.0,0.0,1.56109798E9,,,,0,,5,
Raw,132825078,1327853488000000000,18,,-1022,-0.13491339098686694,333.564095198152,228.5489392942848,0.0,0,10,220.0,259,16001681,25,26.0,340.9731084267689,0.1,0,0.0,0.0,1.56109798E9,,,,0,,5,
Fix,gps,34.185361,117.185754,0.000000,0.000000,5666.354492,1643818270766
Raw,132826013,1327853489000000000,18,,-564,-0.9137369157003832,333.564095198152,233.61889402335967,0.0,0,6,220.0,33,2536664,25,27.0,-473.9066157791357,0.1,0,0.0,0.0,1.59975002E9,,,,0,,3,
Raw,132826013,1327853489000000000,18,,-564,-0.9137369157003832,333.564095198152,233.61889402335967,0.0,0,5,220.0,16399,317488924960367,25,26.0,-443.5039515956305,0.1,0,0.0,0.0,1.57542003E9,,,,0,,1,
Raw,132826013,1327853489000000000,18,,-564,-0.9137369157003832,333.564095198152,233.61889402335967,0.0,0,17,220.0,16399,317488922299898,10,35.0,659.4932162552141,0.1,0,0.0,0.0,1.57542003E9,,,,0,,1,
Raw,132826014,1327853489000000000,18,,-564,-0.9137369157003832,333.564095198152,233.61889402335967,0.0,0,19,220.0,16399,317488927486504,10,37.0,607.8711678972468,0.1,0,0.0,0.0,1.57542003E9,,,,0,,1,
Raw,132826014,1327853489000000000,18,,-564,-0.9137369157003832,333.564095198152,233.61889402335967,0.0,0,1,220.0,259,14193366,10,29.0,68.40060404669984,0.1,0,0.0,0.0,1.56109798E9,,,,0,,5,
Raw,132826014,1327853489000000000,18,,-564,-0.9137369157003832,333.564095198152,233.61889402335967,0.0,0,19,220.0,33,1280122,25,25.0,586.141506836564,0.1,0,0.0,0.0,1.60368755E9,,,,0,,3,
Raw,132826015,1327853489000000000,18,,-564,-0.9137369157003832,333.564095198152,233.61889402335967,0.0,0,20,220.0,3,10548114,400,15.0,-169.66825257986784,0.1,0,0.0,0.0,1.57542003E9,,,,0,,1,
Raw,132826015,1327853489000000000,18,,-564,-0.9137369157003832,333.564095198152,233.61889402335967,0.0,0,7,220.0,259,13803218,10,29.0,374.10144637047756,0.1,0,0.0,0.0,1.56109798E9,,,,0,,5,
Raw,132826015,1327853489000000000,18,,-564,-0.9137369157003832,333.564095198152,233.61889402335967,0.0,0,10,220.0,259,16000530,25,26.0,340.8270321103415,0.1,0,0.0,0.0,1.56109798E9,,,,0,,5,
Raw,132826914,1327853490000000000,18,,-320,-0.325145757310338,333.564095198152,229.1117718787297,0.0,0,6,220.0,33,2538249,25,26.0,-473.90949551502143,0.1,0,0.0,0.0,1.59975002E9,,,,0,,3,
Raw,132826915,1327853490000000000,18,,-320,-0.325145757310338,333.564095198152,229.1117718787297,0.0,0,5,220.0,16399,317489924961847,25,27.0,-443.33726613549516,0.1,0,0.0,0.0,1.57542003E9,,,,0,,1,
Raw,132826915,1327853490000000000,18,,-320,-0.325145757310338,333.564095198152,229.1117718787297,0.0,0,17,220.0,16399,317489922297700,10,35.0,659.4899264106061,0.1,0,0.0,0.0,1.57542003E9,,,,0,,1,
Raw,132826915,1327853490000000000,18,,-320,-0.325145757310338,333.564095198152,229.1117718787297,0.0,0,19,220.0,16399,317489927484478,10,37.0,607.9556072421838,0.1,0,0.0,0.0,1.57542003E9,,,,0,,1,
Raw,132826915,1327853490000000000,18,,-320,-0.325145757310338,333.564095198152,229.1117718787297,0.0,0,1,220.0,259,14193139,10,29.0,68.4138837118296,0.1,0,0.0,0.0,1.56109798E9,,,,0,,5,
Raw,132826916,1327853490000000000,18,,-320,-0.325145757310338,333.564095198152,229.1117718787297,0.0,0,19,220.0,33,1278164,25,23.0,585.93467493272,0.1,0,0.0,0.0,1.60368755E9,,,,0,,3,
Raw,132826916,1327853490000000000,18,,-320,-0.325145757310338,333.564095198152,229.1117718787297,0.0,0,20,220.0,3,10548664,400,15.0,-169.626581214834,0.1,0,0.0,0.0,1.57542003E9,,,,0,,1,
Raw,132826916,1327853490000000000,18,,-320,-0.325145757310338,333.564095198152,229.1117718787297,0.0,0,7,220.0,259,13801957,10,29.0,374.1132505172596,0.1,0,0.0,0.0,1.56109798E9,,,,0,,5,
Raw,132826916,1327853490000000000,18,,-320,-0.325145757310338,333.564095198152,229.1117718787297,0.0,0,10,220.0,259,15999384,25,26.0,340.60865539487435,0.1,0,0.0,0.0,1.56109798E9,,,,0,,5,
Fix,gps,34.184436,117.185638,174.363037,0.000000,19.000000,1643818272000
Fix,gps,34.184408,117.185622,174.363037,0.000000,4.900000,1643818273000
Raw,132827952,1327853491000000000,18,,-137,-0.8509758357243413,333.564095198152,228.244555160853,0.0,0,6,220.0,99,932539832,25,27.0,-473.8058250231334,0.1,0,0.0,0.0,1.59975002E9,,,,0,,3,
Raw,132827953,1327853491000000000,18,,-137,-0.8509758357243413,333.564095198152,228.244555160853,0.0,0,5,220.0,16399,317490924963323,10,28.0,-443.26927601359785,0.1,0,0.0,0.0,1.57542003E9,,,,0,,1,
Raw,132827953,1327853491000000000,18,,-137,-0.8509758357243413,333.564095198152,228.244555160853,0.0,0,17,220.0,16399,317490922295503,10,34.0,659.6259066544008,0.1,0,0.0,0.0,1.57542003E9,,,,0,,1,
Raw,132827954,1327853491000000000,18,,-137,-0.8509758357243413,333.564095198152,228.244555160853,0.0,0,19,220.0,16399,317490927482451,10,37.0,608.0948773305863,0.1,0,0.0,0.0,1.57542003E9,,,,0,,1,
Raw,132827954,1327853491000000000,18,,-137,-0.8509758357243413,333.564095198152,228.244555160853,0.0,0,1,220.0,259,14192909,10,29.0,68.27961154218424,0.1,0,0.0,0.0,1.56109798E9,,,,0,,5,
Raw,132827955,1327853491000000000,18,,-137,-0.8509758357243413,333.564095198152,228.244555160853,0.0,0,19,220.0,33,1276229,25,21.0,586.1443795018952,0.1,0,0.0,0.0,1.60368755E9,,,,0,,3,
Raw,132827955,1327853491000000000,18,,-137,-0.8509758357243413,333.564095198152,228.244555160853,0.0,0,20,220.0,3,10549231,400,15.0,-170.077289926121,0.1,0,0.0,0.0,1.57542003E9,,,,0,,1,
Raw,132827955,1327853491000000000,18,,-137,-0.8509758357243413,333.564095198152,228.244555160853,0.0,0,7,220.0,259,13800697,10,29.0,374.1914529896904,0.1,0,0.0,0.0,1.56109798E9,,,,0,,5,
Raw,132827957,1327853491000000000,18,,-137,-0.8509758357243413,333.564095198152,228.244555160853,0.0,0,10,220.0,259,15998245,25,27.0,340.4197890463622,0.1,0,0.0,0.0,1.56109798E9,,,,0,,5,
Raw,132828925,1327853492000000000,18,,96,0.4901110316304056,333.564095198152,230.11756121457952,0.0,0,6,220.0,99,1932541414,25,26.0,-473.7943060795903,0.1,0,0.0,0.0,1.59975002E9,,,,0,,3,
Raw,132828925,1327853492000000000,18,,96,0.4901110316304056,333.564095198152,230.11756121457952,0.0,0,5,220.0,16399,317491924964800,10,29.0,-443.1903197430074,0.1,0,0.0,0.0,1.57542003E9,,,,0,,1,
Raw,132828925,1327853492000000000,18,,96,0.4901110316304056,333.564095198152,230.11756121457952,0.0,0,17,220.0,16399,317491922293302,10,33.0,659.6719644789118,0.1,0,0.0,0.0,1.57542003E9,,,,0,,1,
Raw,132828925,1327853492000000000,18,,96,0.4901110316304056,333.564095198152,230.11756121457952,0.0,0,19,220.0,16399,317491927480423,10,37.0,608.1694471416995,0.1,0,0.0,0.0,1.57542003E9,,,,0,,1,
Raw,132828925,1327853492000000000,18,,96,0.4901110316304056,333.564095198152,230.11756121457952,0.0,0,1,220.0,259,14192683,10,29.0,68.67505045938155,0.1,0,0.0,0.0,1.56109798E9,,,,0,,5,
Raw,132828925,1327853492000000000,18,,96,0.4901110316304056,333.564095198152,230.11756121457952,0.0,0,19,220.0,33,1274275,25,20.0,586.5235713256092,0.1,0,0.0,0.0,1.60368755E9,,,,0,,3,
Raw,132828926,1327853492000000000,18,,96,0.4901110316304056,333.564095198152,230.11756121457952,0.0,0,20,220.0,3,10549804,400,14.0,-170.41724053560756,0.1,0,0.0,0.0,1.57542003E9,,,,0,,1,
Raw,132828926,1327853492000000000,18,,96,0.4901110316304056,333.564095198152,230.11756121457952,0.0,0,7,220.0,259,13799439,10,29.0,374.22538991168864,0.1,0,0.0,0.0,1.56109798E9,,,,0,,5,
Raw,132828926,1327853492000000000,18,,96,0.4901110316304056,333.564095198152,230.11756121457952,0.0,0,10,220.0,259,15997114,25,26.0,340.4714321885335,0.1,0,0.0,0.0,1.56109798E9,,,,0,,5,
Fix,gps,34.184402,117.185619,174.363037,0.000000,4.900000,1643818274000
Fix,gps,34.184402,117.185619,174.363037,0.000000,4.900000,1643818275000
Raw,132829954,1327853493000000000,18,,339,0.6015455702523127,333.564095198152,230.2474071201531,0.0,0,6,220.0,99,932543007,25,25.0,-473.8720589485063,0.1,0,0.0,0.0,1.59975002E9,,,,0,,3,
Raw,132829955,1327853493000000000,18,,339,0.6015455702523127,333.564095198152,230.2474071201531,0.0,0,5,220.0,16399,317492924966274,10,30.0,-443.32958983141,0.1,0,0.0,0.0,1.57542003E9,,,,0,,1,
Raw,132829955,1327853493000000000,18,,339,0.6015455702523127,333.564095198152,230.2474071201531,0.0,0,17,220.0,16399,317492922291105,10,33.0,659.5228248566855,0.1,0,0.0,0.0,1.57542003E9,,,,0,,1,
Raw,132829955,1327853493000000000,18,,339,0.6015455702523127,333.564095198152,230.2474071201531,0.0,0,19,220.0,16399,317492927478398,5,38.0,608.0159210599959,0.1,0,0.0,0.0,1.57542003E9,,,,0,,1,
Raw,132829955,1327853493000000000,18,,339,0.6015455702523127,333.564095198152,230.2474071201531,0.0,0,1,220.0,259,14192449,10,29.0,68.58651935851648,0.1,0,0.0,0.0,1.56109798E9,,,,0,,5,
Raw,132829955,1327853493000000000,18,,339,0.6015455702523127,333.564095198152,230.2474071201531,0.0,0,19,220.0,33,1272334,25,19.0,585.8542403034473,0.1,0,0.0,0.0,1.60368755E9,,,,0,,3,
Raw,132829955,1327853493000000000,18,,339,0.6015455702523127,333.564095198152,230.2474071201531,0.0,0,20,220.0,3,10550359,400,13.0,-170.22752616321668,0.1,0,0.0,0.0,1.57542003E9,,,,0,,1,
Raw,132829956,1327853493000000000,18,,339,0.6015455702523127,333.564095198152,230.2474071201531,0.0,0,7,220.0,775,2873798181,10,30.0,374.1929285080381,0.1,0,0.0,0.0,1.56109798E9,,,,0,,5,
Raw,132829956,1327853493000000000,18,,339,0.6015455702523127,333.564095198152,230.2474071201531,0.0,0,10,220.0,775,2875995967,25,24.0,340.2102654409816,0.1,0,0.0,0.0,1.56109798E9,,,,0,,5,
Fix,gps,34.184402,117.185619,174.363037,0.000000,4.900000,1643818276000
Raw,132830938,1327853494000000000,18,,564,0.990140606044406,333.564095198152,230.97575611443654,0.0,0,6,220.0,99,1932544586,25,25.0,-473.8547805331917,0.1,0,0.0,0.0,1.59975002E9,,,,0,,3,
Raw,132830938,1327853494000000000,18,,564,0.990140606044406,333.564095198152,230.97575611443654,0.0,0,5,220.0,16399,317493924967754,10,30.0,-443.08833456016146,0.1,0,0.0,0.0,1.57542003E9,,,,0,,1,
Raw,132830939,1327853494000000000,18,,564,0.990140606044406,333.564095198152,230.97575611443654,0.0,0,17,220.0,16399,317493922288908,10,33.0,659.7267952223774,0.1,0,0.0,0.0,1.57542003E9,,,,0,,1,
Raw,132830939,1327853494000000000,18,,564,0.990140606044406,333.564095198152,230.97575611443654,0.0,0,19,220.0,16399,317493927476368,10,37.0,608.3142003044486,0.1,0,0.0,0.0,1.57542003E9,,,,0,,1,
Raw,132830940,1327853494000000000,18,,564,0.990140606044406,333.564095198152,230.97575611443654,0.0,0,1,220.0,775,3874192224,10,29.0,68.3563384962673,0.1,0,0.0,0.0,1.56109798E9,,,,0,,5,
Raw,132830940,1327853494000000000,18,,564,0.990140606044406,333.564095198152,230.97575611443654,0.0,0,19,220.0,33,1270379,25,20.0,586.7189125681285,0.1,0,0.0,0.0,1.60368755E9,,,,0,,3,
Raw,132830940,1327853494000000000,18,,564,0.990140606044406,333.564095198152,230.97575611443654,0.0,0,20,220.0,3,10550904,400,12.0,-170.1814683387056,0.1,0,0.0,0.0,1.57542003E9,,,,0,,1,
Raw,132830941,1327853494000000000,18,,564,0.990140606044406,333.564095198152,230.97575611443654,0.0,0,7,220.0,17167,317493873796935,10,29.0,374.1899774713426,0.1,0,0.0,0.0,1.56109798E9,,,,0,,5,
Raw,132830941,1327853494000000000,18,,564,0.990140606044406,333.564095198152,230.97575611443654,0.0,0,10,220.0,17167,317493875994843,25,26.0,340.1055036382912,0.1,0,0.0,0.0,1.56109798E9,,,,0,,5,
Fix,gps,34.184402,117.185619,174.363037,0.000000,4.900000,1643818277000
Raw,132831963,1327853495000000000,18,,792,0.5031150229312971,333.564095198152,230.4801713065712,0.0,0,6,220.0,99,932546175,25,26.0,-473.9526915533081,0.1,0,0.0,0.0,1.59975002E9,,,,0,,3,
Raw,132831963,1327853495000000000,18,,792,0.5031150229312971,333.564095198152,230.4801713065712,0.0,0,5,220.0,16399,317494924969231,10,29.0,-443.13548899954185,0.1,0,0.0,0.0,1.57542003E9,,,,0,,1,
Raw,132831964,1327853495000000000,18,,792,0.5031150229312971,333.564095198152,230.4801713065712,0.0,0,17,220.0,16399,317494922286708,10,34.0,659.4011006061919,0.1,0,0.0,0.0,1.57542003E9,,,,0,,1,
Raw,132831966,1327853495000000000,18,,792,0.5031150229312971,333.564095198152,230.4801713065712,0.0,0,19,220.0,16399,317494927474335,10,37.0,608.0235973640811,0.1,0,0.0,0.0,1.57542003E9,,,,0,,1,
Raw,132831967,1327853495000000000,18,,792,0.5031150229312971,333.564095198152,230.4801713065712,0.0,0,1,220.0,259,14191994,10,29.0,68.27961154218424,0.1,0,0.0,0.0,1.56109798E9,,,,0,,5,
Raw,132831967,1327853495000000000,18,,792,0.5031150229312971,333.564095198152,230.4801713065712,0.0,0,19,220.0,33,1268420,25,20.0,586.7936018667389,0.1,0,0.0,0.0,1.60368755E9,,,,0,,3,
Raw,132831968,1327853495000000000,18,,792,0.5031150229312971,333.564095198152,230.4801713065712,0.0,0,20,220.0,3,10551463,400,10.0,-169.61342183640227,0.1,0,0.0,0.0,1.57542003E9,,,,0,,1,
Raw,132831968,1327853495000000000,18,,792,0.5031150229312971,333.564095198152,230.4801713065712,0.0,0,7,220.0,17167,317494873795688,10,29.0,374.0999708521298,0.1,0,0.0,0.0,1.56109798E9,,,,0,,5,
Raw,132831968,1327853495000000000,18,,792,0.5031150229312971,333.564095198152,230.4801713065712,0.0,0,10,220.0,17167,317494875993708,25,26.0,340.095175009857,0.1,0,0.0,0.0,1.56109798E9,,,,0,,5,
Fix,gps,34.184402,117.185619,174.363037,0.000000,4.900000,1643818278000
Raw,132832953,1327853496000000000,18,,1027,0.5223571632168387,333.564095198152,230.90308436856685,0.0,0,6,220.0,99,1932547754,25,26.0,-473.6445598135298,0.1,0,0.0,0.0,1.59975002E9,,,,0,,3,
Raw,132832954,1327853496000000000,18,,1027,0.5223571632168387,333.564095198152,230.90308436856685,0.0,0,5,220.0,16399,317495924970711,10,29.0,-442.99950875574723,0.1,0,0.0,0.0,1.57542003E9,,,,0,,1,
Raw,132832955,1327853496000000000,18,,1027,0.5223571632168387,333.564095198152,230.90308436856685,0.0,0,17,220.0,16399,317495922284504,10,34.0,659.679640782997,0.1,0,0.0,0.0,1.57542003E9,,,,0,,1,
Raw,132832955,1327853496000000000,18,,1027,0.5223571632168387,333.564095198152,230.90308436856685,0.0,0,19,220.0,16399,317495927472304,10,37.0,608.3076206152327,0.1,0,0.0,0.0,1.57542003E9,,,,0,,1,
Raw,132832957,1327853496000000000,18,,1027,0.5223571632168387,333.564095198152,230.90308436856685,0.0,0,1,220.0,259,14191766,10,29.0,68.30764639079152,0.1,0,0.0,0.0,1.56109798E9,,,,0,,5,
Raw,132832958,1327853496000000000,18,,1027,0.5223571632168387,333.564095198152,230.90308436856685,0.0,0,19,220.0,33,1266455,25,20.0,586.7131672374661,0.1,0,0.0,0.0,1.60368755E9,,,,0,,3,
Raw,132832958,1327853496000000000,18,,1027,0.5223571632168387,333.564095198152,230.90308436856685,0.0,0,20,220.0,3,10552015,400,10.0,-169.2515389295295,0.1,0,0.0,0.0,1.57542003E9,,,,0,,1,
Raw,132832959,1327853496000000000,18,,1027,0.5223571632168387,333.564095198152,230.90308436856685,0.0,0,7,220.0,17167,317495873794443,10,29.0,374.11767707230285,0.1,0,0.0,0.0,1.56109798E9,,,,0,,5,
Raw,132832959,1327853496000000000,18,,1027,0.5223571632168387,333.564095198152,230.90308436856685,0.0,0,10,220.0,17167,317495875992576,25,26.0,340.0184480557739,0.1,0,0.0,0.0,1.56109798E9,,,,0,,5,
Raw,132833912,1327853497000000000,18,,1254,0.036573569922438764,333.564095198152,231.38255090237337,0.0,0,6,220.0,99,932549338,25,26.0,-473.6100029829004,0.1,0,0.0,0.0,1.59975002E9,,,,0,,3,
Raw,132833912,1327853497000000000,18,,1254,0.036573569922438764,333.564095198152,231.38255090237337,0.0,0,5,220.0,16399,317496924972189,10,28.0,-442.6694276800845,0.1,0,0.0,0.0,1.57542003E9,,,,0,,1,
Raw,132833912,1327853497000000000,18,,1254,0.036573569922438764,333.564095198152,231.38255090237337,0.0,0,17,220.0,16399,317496922282301,10,35.0,659.4241295184474,0.1,0,0.0,0.0,1.57542003E9,,,,0,,1,
Raw,132833913,1327853497000000000,18,,1254,0.036573569922438764,333.564095198152,231.38255090237337,0.0,0,19,220.0,16399,317496927470278,10,37.0,608.0159210599959,0.1,0,0.0,0.0,1.57542003E9,,,,0,,1,
Raw,132833913,1327853497000000000,18,,1254,0.036573569922438764,333.564095198152,231.38255090237337,0.0,0,1,220.0,259,14191537,10,29.0,68.39175093661333,0.1,0,0.0,0.0,1.56109798E9,,,,0,,5,
Raw,132833913,1327853497000000000,18,,1254,0.036573569922438764,333.564095198152,231.38255090237337,0.0,0,19,220.0,33,1264503,25,25.0,586.7217852334596,0.1,0,0.0,0.0,1.60368755E9,,,,0,,3,
Raw,132833913,1327853497000000000,18,,1254,0.036573569922438764,333.564095198152,231.38255090237337,0.0,0,20,220.0,3,10552578,400,10.0,-169.28334076073952,0.1,0,0.0,0.0,1.57542003E9,,,,0,,1,
Raw,132833913,1327853497000000000,18,,1254,0.036573569922438764,333.564095198152,231.38255090237337,0.0,0,7,220.0,17167,317496873793198,10,30.0,374.06898496682703,0.1,0,0.0,0.0,1.56109798E9,,,,0,,5,
Raw,132833913,1327853497000000000,18,,1254,0.036573569922438764,333.564095198152,231.38255090237337,0.0,0,10,220.0,17167,317496875991443,25,25.0,339.9579518035161,0.1,0,0.0,0.0,1.56109798E9,,,,0,,5,
Fix,gps,34.184402,117.185619,174.363037,0.000000,4.900000,1643818279000
Fix,gps,34.184402,117.185619,174.363037,0.000000,4.900000,1643818280000
Raw,132834959,1327853498000000000,18,,1465,0.12294431717009502,333.564095198152,230.0351013206704,0.0,0,6,220.0,99,1932550924,25,26.0,-473.6244016623293,0.1,0,0.0,0.0,1.59975002E9,,,,0,,3,
Raw,132834960,1327853498000000000,18,,1465,0.12294431717009502,333.564095198152,230.0351013206704,0.0,0,5,220.0,16399,317497924973673,25,27.0,-442.8054079238791,0.1,0,0.0,0.0,1.57542003E9,,,,0,,1,
Raw,132834960,1327853498000000000,18,,1465,0.12294431717009502,333.564095198152,230.0351013206704,0.0,0,17,220.0,16399,317497922280099,10,34.0,659.5732691406738,0.1,0,0.0,0.0,1.57542003E9,,,,0,,1,
Raw,132834961,1327853498000000000,18,,1465,0.12294431717009502,333.564095198152,230.0351013206704,0.0,0,19,220.0,16399,317497927468250,10,36.0,608.0148244451266,0.1,0,0.0,0.0,1.57542003E9,,,,0,,1,
Raw,132834961,1327853498000000000,18,,1465,0.12294431717009502,333.564095198152,230.0351013206704,0.0,0,1,220.0,259,14191306,10,29.0,68.21173769818769,0.1,0,0.0,0.0,1.56109798E9,,,,0,,5,
Raw,132834961,1327853498000000000,18,,1465,0.12294431717009502,333.564095198152,230.0351013206704,0.0,0,19,220.0,33,1262541,25,26.0,586.6298599428624,0.1,0,0.0,0.0,1.60368755E9,,,,0,,3,
Raw,132834962,1327853498000000000,18,,1465,0.12294431717009502,333.564095198152,230.0351013206704,0.0,0,20,220.0,3,10553144,400,10.0,-168.78547761007212,0.1,0,0.0,0.0,1.57542003E9,,,,0,,1,
Raw,132834962,1327853498000000000,18,,1465,0.12294431717009502,333.564095198152,230.0351013206704,0.0,0,7,220.0,17167,317497873791954,10,29.0,373.8284754761436,0.1,0,0.0,0.0,1.56109798E9,,,,0,,5,
Raw,132834963,1327853498000000000,18,,1465,0.12294431717009502,333.564095198152,230.0351013206704,0.0,0,10,220.0,17167,317497875990309,25,26.0,340.0332032392514,0.1,0,0.0,0.0,1.56109798E9,,,,0,,5,
Raw,132835925,1327853499000000000,18,,1695,0.636312208283698,333.564095198152,230.99389805367724,0.0,0,6,220.0,99,932552502,25,27.0,-473.6762369082733,0.1,0,0.0,0.0,1.59975002E9,,,,0,,3,
Raw,132835926,1327853499000000000,18,,1695,0.636312208283698,333.564095198152,230.99389805367724,0.0,0,5,220.0,16399,317498924975152,10,28.0,-443.0038952152245,0.1,0,0.0,0.0,1.57542003E9,,,,0,,1,
Raw,132835926,1327853499000000000,18,,1695,0.636312208283698,333.564095198152,230.99389805367724,0.0,0,17,220.0,16399,317498922277898,10,34.0,659.6401626477018,0.1,0,0.0,0.0,1.57542003E9,,,,0,,1,
Raw,132835926,1327853499000000000,18,,1695,0.636312208283698,333.564095198152,230.99389805367724,0.0,0,19,220.0,16399,317498927466222,10,37.0,608.3043307706248,0.1,0,0.0,0.0,1.57542003E9,,,,0,,1,
Raw,132835926,1327853499000000000,18,,1695,0.636312208283698,333.564095198152,230.99389805367724,0.0,0,1,220.0,259,14191080,10,29.0,68.27075843209774,0.1,0,0.0,0.0,1.56109798E9,,,,0,,5,
Raw,132835926,1327853499000000000,18,,1695,0.636312208283698,333.564095198152,230.99389805367724,0.0,0,19,220.0,33,1260592,25,24.0,586.6758225881609,0.1,0,0.0,0.0,1.60368755E9,,,,0,,3,
Raw,132835926,1327853499000000000,18,,1695,0.636312208283698,333.564095198152,230.99389805367724,0.0,0,20,220.0,3,10553709,400,10.0,-168.89075263752602,0.1,0,0.0,0.0,1.57542003E9,,,,0,,1,
Raw,132835927,1327853499000000000,18,,1695,0.636312208283698,333.564095198152,230.99389805367724,0.0,0,7,220.0,17167,317498873790708,10,29.0,373.58501494876464,0.1,0,0.0,0.0,1.56109798E9,,,,0,,5,
Raw,132835927,1327853499000000000,18,,1695,0.636312208283698,333.564095198152,230.99389805367724,0.0,0,10,220.0,17167,317498875989176,25,26.0,339.9889376888189,0.1,0,0.0,0.0,1.56109798E9,,,,0,,5,
Fix,gps,34.184402,117.185619,174.363037,0.000000,4.900000,1643818281000
Raw,132836940,1327853500000000000,18,,1930,0.8205495613669882,333.564095198152,230.6189209553254,0.0,0,6,220.0,99,1932554080,25,26.0,-473.4890540756977,0.1,0,0.0,0.0,1.59975002E9,,,,0,,3,
Raw,132836940,1327853500000000000,18,,1930,0.8205495613669882,333.564095198152,230.6189209553254,0.0,0,5,220.0,16399,317499924976626,25,27.0,-443.0653056479059,0.1,0,0.0,0.0,1.57542003E9,,,,0,,1,
Raw,132836940,1327853500000000000,18,,1930,0.8205495613669882,333.564095198152,230.6189209553254,0.0,0,17,220.0,16399,317499922275704,10,33.0,659.9099299055524,0.1,0,0.0,0.0,1.57542003E9,,,,0,,1,
Raw,132836940,1327853500000000000,18,,1930,0.8205495613669882,333.564095198152,230.6189209553254,0.0,0,19,220.0,16399,317499927464194,10,37.0,608.5411995823961,0.1,0,0.0,0.0,1.57542003E9,,,,0,,1,
Raw,132836941,1327853500000000000,18,,1930,0.8205495613669882,333.564095198152,230.6189209553254,0.0,0,1,220.0,259,14190856,10,29.0,67.96827717080875,0.1,0,0.0,0.0,1.56109798E9,,,,0,,5,
Raw,132836941,1327853500000000000,18,,1930,0.8205495613669882,333.564095198152,230.6189209553254,0.0,0,19,220.0,33,1258644,25,22.0,586.6011332895506,0.1,0,0.0,0.0,1.60368755E9,,,,0,,3,
Raw,132836941,1327853500000000000,18,,1930,0.8205495613669882,333.564095198152,230.6189209553254,0.0,0,9,220.0,3,4426367,400,12.0,286.1133990925737,0.1,0,0.0,0.0,1.57542003E9,,,,0,,1,
Raw,132836941,1327853500000000000,18,,1930,0.8205495613669882,333.564095198152,230.6189209553254,0.0,0,20,220.0,3,10554278,400,13.0,-168.62537183915265,0.1,0,0.0,0.0,1.57542003E9,,,,0,,1,
Raw,132836941,1327853500000000000,18,,1930,0.8205495613669882,333.564095198152,230.6189209553254,0.0,0,7,220.0,17167,317499873789463,10,29.0,373.54222491667986,0.1,0,0.0,0.0,1.56109798E9,,,,0,,5,
Raw,132836941,1327853500000000000,18,,1930,0.8205495613669882,333.564095198152,230.6189209553254,0.0,0,10,220.0,17167,317499875988041,25,26.0,339.9800845787324,0.1,0,0.0,0.0,1.56109798E9,,,,0,,5,
Fix,gps,34.184402,117.185619,174.363037,0.000000,4.900000,1643818282000
Raw,132837935,1327853501000000000,18,,2167,0.6351667589206045,333.564095198152,230.1130160622575,0.0,0,6,220.0,99,932555658,25,26.0,-473.12044788231793,0.1,0,0.0,0.0,1.59975002E9,,,,0,,3,
Raw,132837935,1327853501000000000,18,,2167,0.6351667589206045,333.564095198152,230.1130160622575,0.0,0,5,220.0,16399,317500924978109,25,25.0,-442.98086630296893,0.1,0,0.0,0.0,1.57542003E9,,,,0,,1,
Raw,132837935,1327853501000000000,18,,2167,0.6351667589206045,333.564095198152,230.1130160622575,0.0,0,17,220.0,16399,317500922273505,10,32.0,659.6412592625711,0.1,0,0.0,0.0,1.57542003E9,,,,0,,1,
Raw,132837936,1327853501000000000,18,,2167,0.6351667589206045,333.564095198152,230.1130160622575,0.0,0,19,220.0,16399,317500927462165,10,37.0,608.2988476962782,0.1,0,0.0,0.0,1.57542003E9,,,,0,,1,
Raw,132837936,1327853501000000000,18,,2167,0.6351667589206045,333.564095198152,230.1130160622575,0.0,0,1,220.0,259,14190628,10,29.0,67.88417262498693,0.1,0,0.0,0.0,1.56109798E9,,,,0,,5,
Raw,132837936,1327853501000000000,18,,2167,0.6351667589206045,333.564095198152,230.1130160622575,0.0,0,19,220.0,33,1256694,25,20.0,587.0779957345243,0.1,0,0.0,0.0,1.60368755E9,,,,0,,3,
Raw,132837936,1327853501000000000,18,,2167,0.6351667589206045,333.564095198152,230.1130160622575,0.0,0,9,220.0,3,4425340,400,10.0,285.7515161857009,0.1,0,0.0,0.0,1.57542003E9,,,,0,,1,
Raw,132837937,1327853501000000000,18,,2167,0.6351667589206045,333.564095198152,230.1130160622575,0.0,0,20,220.0,3,10554846,400,13.0,-167.98165891086683,0.1,0,0.0,0.0,1.57542003E9,,,,0,,1,
Raw,132837937,1327853501000000000,18,,2167,0.6351667589206045,333.564095198152,230.1130160622575,0.0,0,7,220.0,17167,317500873788220,10,30.0,373.5702597652872,0.1,0,0.0,0.0,1.56109798E9,,,,0,,5,
Raw,132837937,1327853501000000000,18,,2167,0.6351667589206045,333.564095198152,230.1130160622575,0.0,0,10,220.0,17167,317500875986906,25,26.0,340.0140215007307,0.1,0,0.0,0.0,1.56109798E9,,,,0,,5,
Fix,gps,34.184402,117.185619,174.363037,0.000000,4.900000,1643818283000
Fix,gps,34.184402,117.185619,174.363037,0.000000,4.900000,1643818284000
Raw,132838942,1327853502000000000,18,,2406,0.6244016045720855,333.564095198152,229.37091256813758,0.0,0,6,220.0,99,1932557239,25,26.0,-473.4170606785532,0.1,0,0.0,0.0,1.59975002E9,,,,0,,3,
Raw,132838942,1327853502000000000,18,,2406,0.6244016045720855,333.564095198152,229.37091256813758,0.0,0,5,220.0,16399,317501924979597,25,27.0,-443.1332957698032,0.1,0,0.0,0.0,1.57542003E9,,,,0,,1,
Raw,132838942,1327853502000000000,18,,2406,0.6244016045720855,333.564095198152,229.37091256813758,0.0,0,17,220.0,16399,317501922271302,10,33.0,659.461414424004,0.1,0,0.0,0.0,1.57542003E9,,,,0,,1,
Raw,132838942,1327853502000000000,18,,2406,0.6244016045720855,333.564095198152,229.37091256813758,0.0,0,19,220.0,16399,317501927460135,5,38.0,608.108036709018,0.1,0,0.0,0.0,1.57542003E9,,,,0,,1,
Raw,132838943,1327853502000000000,18,,2406,0.6244016045720855,333.564095198152,229.37091256813758,0.0,0,1,220.0,259,14190400,10,29.0,67.75432701038484,0.1,0,0.0,0.0,1.56109798E9,,,,0,,5,
Raw,132838943,1327853502000000000,18,,2406,0.6244016045720855,333.564095198152,229.37091256813758,0.0,0,19,220.0,33,1254751,25,20.0,586.9085084799855,0.1,0,0.0,0.0,1.60368755E9,,,,0,,3,
Raw,132838943,1327853502000000000,18,,2406,0.6244016045720855,333.564095198152,229.37091256813758,0.0,0,9,220.0,3,4424376,400,10.0,283.6262765689753,0.1,0,0.0,0.0,1.57542003E9,,,,0,,1,
Raw,132838943,1327853502000000000,18,,2406,0.6244016045720855,333.564095198152,229.37091256813758,0.0,0,20,220.0,3,10555415,400,14.0,-168.08912716805935,0.1,0,0.0,0.0,1.57542003E9,,,,0,,1,
Raw,132838943,1327853502000000000,18,,2406,0.6244016045720855,333.564095198152,229.37091256813758,0.0,0,7,220.0,17167,317501873786974,10,30.0,373.5864904671124,0.1,0,0.0,0.0,1.56109798E9,,,,0,,5,
Raw,132838944,1327853502000000000,18,,2406,0.6244016045720855,333.564095198152,229.37091256813758,0.0,0,10,220.0,17167,317501875985769,25,27.0,339.9313924732566,0.1,0,0.0,0.0,1.56109798E9,,,,0,,5,
Fix,gps,34.184402,117.185619,174.363037,0.000000,4.900000,1643818285000
Raw,132839958,1327853503000000000,18,,2640,0.3598554081791008,333.564095198152,228.84637315150255,0.0,0,6,220.0,99,932558823,25,27.0,-473.4429783015252,0.1,0,0.0,0.0,1.59975002E9,,,,0,,3,
Raw,132839959,1327853503000000000,18,,2640,0.3598554081791008,333.564095198152,228.84637315150255,0.0,0,5,220.0,16399,317502924981071,25,26.0,-443.2363775675185,0.1,0,0.0,0.0,1.57542003E9,,,,0,,1,
Raw,132839960,1327853503000000000,18,,2640,0.3598554081791008,333.564095198152,228.84637315150255,0.0,0,17,220.0,16399,317502922269096,10,34.0,659.1784877877217,0.1,0,0.0,0.0,1.57542003E9,,,,0,,1,
Raw,132839960,1327853503000000000,18,,2640,0.3598554081791008,333.564095198152,228.84637315150255,0.0,0,19,220.0,16399,317502927458106,5,38.0,607.9994718369562,0.1,0,0.0,0.0,1.57542003E9,,,,0,,1,
Raw,132839961,1327853503000000000,18,,2640,0.3598554081791008,333.564095198152,228.84637315150255,0.0,0,1,220.0,17167,317502874190175,10,29.0,67.86499088646617,0.1,0,0.0,0.0,1.56109798E9,,,,0,,5,
Raw,132839961,1327853503000000000,18,,2640,0.3598554081791008,333.564095198152,228.84637315150255,0.0,0,19,220.0,33,1252789,25,21.0,586.6672045921675,0.1,0,0.0,0.0,1.60368755E9,,,,0,,3,
Raw,132839961,1327853503000000000,18,,2640,0.3598554081791008,333.564095198152,228.84637315150255,0.0,0,9,220.0,3,4423440,400,10.0,283.71839221799746,0.1,0,0.0,0.0,1.57542003E9,,,,0,,1,
Raw,132839962,1327853503000000000,18,,2640,0.3598554081791008,333.564095198152,228.84637315150255,0.0,0,20,220.0,3,10555980,400,15.0,-168.12641207361594,0.1,0,0.0,0.0,1.57542003E9,,,,0,,1,
Raw,132839964,1327853503000000000,18,,2640,0.3598554081791008,333.564095198152,228.84637315150255,0.0,0,7,220.0,17167,317502873785728,10,30.0,373.45959588920584,0.1,0,0.0,0.0,1.56109798E9,,,,0,,5,
Raw,132839964,1327853503000000000,18,,2640,0.3598554081791008,333.564095198152,228.84637315150255,0.0,0,10,220.0,17167,317502875984634,25,26.0,339.71154023944166,0.1,0,0.0,0.0,1.56109798E9,,,,0,,5,
Fix,gps,34.184402,117.185619,174.363037,0.000000,4.900000,1643818286000
Raw,132840960,1327853504000000000,18,,2872,0.9945654621378708,333.564095198152,228.6474944415193,0.0,0,6,220.0,99,1932560407,25,27.0,-473.42282015032475,0.1,0,0.0,0.0,1.59975002E9,,,,0,,3,
Raw,132840961,1327853504000000000,18,,2872,0.9945654621378708,333.564095198152,228.6474944415193,0.0,0,5,220.0,16399,317503924982554,10,28.0,-443.1979960470926,0.1,0,0.0,0.0,1.57542003E9,,,,0,,1,
Raw,132840962,1327853504000000000,18,,2872,0.9945654621378708,333.564095198152,228.6474944415193,0.0,0,17,220.0,16399,317503922266894,10,35.0,659.5326943905093,0.1,0,0.0,0.0,1.57542003E9,,,,0,,1,
Raw,132840962,1327853504000000000,18,,2872,0.9945654621378708,333.564095198152,228.6474944415193,0.0,0,19,220.0,16399,317503927456076,10,37.0,608.2560797163751,0.1,0,0.0,0.0,1.57542003E9,,,,0,,1,
Raw,132840962,1327853504000000000,18,,2872,0.9945654621378708,333.564095198152,228.6474944415193,0.0,0,1,220.0,259,14189948,10,29.0,67.42085986379308,0.1,0,0.0,0.0,1.56109798E9,,,,0,,5,
Raw,132840963,1327853504000000000,18,,2872,0.9945654621378708,333.564095198152,228.6474944415193,0.0,0,19,220.0,33,1250824,25,20.0,586.1156528485835,0.1,0,0.0,0.0,1.60368755E9,,,,0,,3,
Raw,132840963,1327853504000000000,18,,2872,0.9945654621378708,333.564095198152,228.6474944415193,0.0,0,9,220.0,3,4422473,400,10.0,283.27864965540357,0.1,0,0.0,0.0,1.57542003E9,,,,0,,1,
Raw,132840963,1327853504000000000,18,,2872,0.9945654621378708,333.564095198152,228.6474944415193,0.0,0,20,220.0,3,10556542,400,16.0,-168.11105946544558,0.1,0,0.0,0.0,1.57542003E9,,,,0,,1,
Raw,132840964,1327853504000000000,18,,2872,0.9945654621378708,333.564095198152,228.6474944415193,0.0,0,7,220.0,17167,317503873784484,10,29.0,373.46402244424905,0.1,0,0.0,0.0,1.56109798E9,,,,0,,5,
Raw,132840964,1327853504000000000,18,,2872,0.9945654621378708,333.564095198152,228.6474944415193,0.0,0,10,220.0,17167,317503875983500,25,26.0,339.5684149597098,0.1,0,0.0,0.0,1.56109798E9,,,,0,,5,
Fix,gps,34.184402,117.185619,174.363037,0.000000,4.900000,1643818287000
Raw,132841939,1327853505000000000,18,,3103,0.971855726144895,333.564095198152,228.684398658252,0.0,0,6,220.0,99,932561992,25,26.0,-473.78566687193296,0.1,0,0.0,0.0,1.59975002E9,,,,0,,3,
Raw,132841939,1327853505000000000,18,,3103,0.971855726144895,333.564095198152,228.684398658252,0.0,0,5,220.0,16399,317504924984029,10,29.0,-443.0949142493773,0.1,0,0.0,0.0,1.57542003E9,,,,0,,1,
Raw,132841940,1327853505000000000,18,,3103,0.971855726144895,333.564095198152,228.684398658252,0.0,0,17,220.0,16399,317504922264695,10,35.0,659.4460618158337,0.1,0,0.0,0.0,1.57542003E9,,,,0,,1,
Raw,132841940,1327853505000000000,18,,3103,0.971855726144895,333.564095198152,228.684398658252,0.0,0,19,220.0,16399,317504927454049,10,37.0,608.2231812702958,0.1,0,0.0,0.0,1.57542003E9,,,,0,,1,
Raw,132841940,1327853505000000000,18,,3103,0.971855726144895,333.564095198152,228.684398658252,0.0,0,1,220.0,259,14189726,10,29.0,67.27478354736571,0.1,0,0.0,0.0,1.56109798E9,,,,0,,5,
Raw,132841940,1327853505000000000,18,,3103,0.971855726144895,333.564095198152,228.684398658252,0.0,0,19,220.0,33,1248871,25,21.0,585.8571129687786,0.1,0,0.0,0.0,1.60368755E9,,,,0,,3,
Raw,132841941,1327853505000000000,18,,3103,0.971855726144895,333.564095198152,228.684398658252,0.0,0,9,220.0,3,4421508,400,10.0,283.1832441617735,0.1,0,0.0,0.0,1.57542003E9,,,,0,,1,
Raw,132841941,1327853505000000000,18,,3103,0.971855726144895,333.564095198152,228.684398658252,0.0,0,20,220.0,3,10557128,400,16.0,-168.3325756690465,0.1,0,0.0,0.0,1.57542003E9,,,,0,,1,
Raw,132841941,1327853505000000000,18,,3103,0.971855726144895,333.564095198152,228.684398658252,0.0,0,7,220.0,17167,317504873783240,10,29.0,373.2397436553909,0.1,0,0.0,0.0,1.56109798E9,,,,0,,5,
Raw,132841941,1327853505000000000,18,,3103,0.971855726144895,333.564095198152,228.684398658252,0.0,0,10,220.0,17167,317504875982367,25,26.0,339.47398178545376,0.1,0,0.0,0.0,1.56109798E9,,,,0,,5,
Raw,132842938,1327853506000000000,18,,3323,0.8034334409521762,333.564095198152,228.29324124106637,0.0,0,6,220.0,99,1932563567,25,27.0,-473.59560430347153,0.1,0,0.0,0.0,1.59975002E9,,,,0,,3,
Raw,132842938,1327853506000000000,18,,3323,0.8034334409521762,333.564095198152,228.29324124106637,0.0,0,5,220.0,16399,317505924985511,10,29.0,-443.0916244047694,0.1,0,0.0,0.0,1.57542003E9,,,,0,,1,
Raw,132842938,1327853506000000000,18,,3323,0.8034334409521762,333.564095198152,228.29324124106637,0.0,0,17,220.0,16399,317505922262497,10,35.0,659.4625110388733,0.1,0,0.0,0.0,1.57542003E9,,,,0,,1,
Raw,132842938,1327853506000000000,18,,3323,0.8034334409521762,333.564095198152,228.29324124106637,0.0,0,19,220.0,16399,317505927452020,10,37.0,608.3021375408862,0.1,0,0.0,0.0,1.57542003E9,,,,0,,1,
Raw,132842939,1327853506000000000,18,,3323,0.8034334409521762,333.564095198152,228.29324124106637,0.0,0,1,220.0,259,14189499,10,29.0,67.19215451989164,0.1,0,0.0,0.0,1.56109798E9,,,,0,,5,
Raw,132842939,1327853506000000000,18,,3323,0.8034334409521762,333.564095198152,228.29324124106637,0.0,0,19,220.0,33,1246927,25,25.0,585.5123931290385,0.1,0,0.0,0.0,1.60368755E9,,,,0,,3,
Raw,132842939,1327853506000000000,18,,3323,0.8034334409521762,333.564095198152,228.29324124106637,0.0,0,9,220.0,3,4420559,400,10.0,283.42888589249924,0.1,0,0.0,0.0,1.57542003E9,,,,0,,1,
Raw,132842939,1327853506000000000,18,,3323,0.8034334409521762,333.564095198152,228.29324124106637,0.0,0,20,220.0,3,10557700,400,16.0,-168.45101007493213,0.1,0,0.0,0.0,1.57542003E9,,,,0,,1,
Raw,132842940,1327853506000000000,18,,3323,0.8034334409521762,333.564095198152,228.29324124106637,0.0,0,7,220.0,17167,317505873781996,10,30.0,373.1039959673978,0.1,0,0.0,0.0,1.56109798E9,,,,0,,5,
Raw,132842940,1327853506000000000,18,,3323,0.8034334409521762,333.564095198152,228.29324124106637,0.0,0,10,220.0,17167,317505875981234,25,26.0,339.472506267106,0.1,0,0.0,0.0,1.56109798E9,,,,0,,5,
Fix,gps,34.184402,117.185619,174.363037,0.000000,4.900000,1643818288000
Raw,132843955,1327853507000000000,18,,3549,0.6956711230577639,333.564095198152,227.54944909430367,0.0,0,6,220.0,99,932565142,25,26.0,-473.3220293943225,0.1,0,0.0,0.0,1.59975002E9,,,,0,,3,
Raw,132843956,1327853507000000000,18,,3549,0.6956711230577639,333.564095198152,227.54944909430367,0.0,0,5,220.0,16399,317506924986973,10,30.0,-443.1300059251953,0.1,0,0.0,0.0,1.57542003E9,,,,0,,1,
Raw,132843956,1327853507000000000,18,,3549,0.6956711230577639,333.564095198152,227.54944909430367,0.0,0,17,220.0,16399,317506922260300,10,34.0,659.126946888864,0.1,0,0.0,0.0,1.57542003E9,,,,0,,1,
Raw,132843957,1327853507000000000,18,,3549,0.6956711230577639,333.564095198152,227.54944909430367,0.0,0,19,220.0,16399,317506927449991,10,37.0,607.9709598503541,0.1,0,0.0,0.0,1.57542003E9,,,,0,,1,
Raw,132843957,1327853507000000000,18,,3549,0.6956711230577639,333.564095198152,227.54944909430367,0.0,0,1,220.0,259,14189273,10,29.0,67.15526656119788,0.1,0,0.0,0.0,1.56109798E9,,,,0,,5,
Raw,132843958,1327853507000000000,18,,3549,0.6956711230577639,333.564095198152,227.54944909430367,0.0,0,19,220.0,33,1244964,25,25.0,586.0467088806355,0.1,0,0.0,0.0,1.60368755E9,,,,0,,3,
Raw,132843958,1327853507000000000,18,,3549,0.6956711230577639,333.564095198152,227.54944909430367,0.0,0,9,220.0,3,4419603,400,10.0,283.46946064266376,0.1,0,0.0,0.0,1.57542003E9,,,,0,,1,
Raw,132843959,1327853507000000000,18,,3549,0.6956711230577639,333.564095198152,227.54944909430367,0.0,0,20,220.0,3,10558282,400,17.0,-168.6023429268971,0.1,0,0.0,0.0,1.57542003E9,,,,0,,1,
Raw,132843959,1327853507000000000,18,,3549,0.6956711230577639,333.564095198152,227.54944909430367,0.0,0,7,220.0,17167,317506873780751,10,29.0,373.22646399026115,0.1,0,0.0,0.0,1.56109798E9,,,,0,,5,
Raw,132843959,1327853507000000000,18,,3549,0.6956711230577639,333.564095198152,227.54944909430367,0.0,0,10,220.0,17167,317506875980103,25,27.0,339.4134855331959,0.1,0,0.0,0.0,1.56109798E9,,,,0,,5,
Fix,gps,34.184402,117.185619,174.363037,0.000000,4.900000,1643818289000
Fix,gps,34.184402,117.185619,174.363037,0.000000,4.900000,1643818290000
Raw,132844959,1327853508000000000,18,,3781,0.3886606511860009,333.564095198152,228.144294271925,0.0,0,6,220.0,99,1932566724,25,27.0,-473.55240826518485,0.1,0,0.0,0.0,1.59975002E9,,,,0,,3,
Raw,132844959,1327853508000000000,18,,3781,0.3886606511860009,333.564095198152,228.144294271925,0.0,0,5,220.0,16399,317507924988449,10,30.0,-443.22102495934814,0.1,0,0.0,0.0,1.57542003E9,,,,0,,1,
Raw,132844960,1327853508000000000,18,,3781,0.3886606511860009,333.564095198152,228.144294271925,0.0,0,17,220.0,16399,317507922258104,10,34.0,659.4449652009644,0.1,0,0.0,0.0,1.57542003E9,,,,0,,1,
Raw,132844960,1327853508000000000,18,,3781,0.3886606511860009,333.564095198152,228.144294271925,0.0,0,19,220.0,16399,317507927447960,10,37.0,608.4030261088628,0.1,0,0.0,0.0,1.57542003E9,,,,0,,1,
Raw,132844961,1327853508000000000,18,,3781,0.3886606511860009,333.564095198152,228.144294271925,0.0,0,1,220.0,259,14189050,10,30.0,67.23346903362868,0.1,0,0.0,0.0,1.56109798E9,,,,0,,5,
Raw,132844961,1327853508000000000,18,,3781,0.3886606511860009,333.564095198152,228.144294271925,0.0,0,19,220.0,33,1243001,25,25.0,586.2334321271613,0.1,0,0.0,0.0,1.60368755E9,,,,0,,3,
Raw,132844962,1327853508000000000,18,,3781,0.3886606511860009,333.564095198152,228.144294271925,0.0,0,9,220.0,3,4418634,400,12.0,283.3872145274654,0.1,0,0.0,0.0,1.57542003E9,,,,0,,1,
Raw,132844962,1327853508000000000,18,,3781,0.3886606511860009,333.564095198152,228.144294271925,0.0,0,20,220.0,3,10558838,400,17.0,-168.69445857591927,0.1,0,0.0,0.0,1.57542003E9,,,,0,,1,
Raw,132844962,1327853508000000000,18,,3781,0.3886606511860009,333.564095198152,228.144294271925,0.0,0,7,220.0,17167,317507873779505,10,30.0,373.17186981139434,0.1,0,0.0,0.0,1.56109798E9,,,,0,,5,
Raw,132844963,1327853508000000000,18,,3781,0.3886606511860009,333.564095198152,228.144294271925,0.0,0,10,220.0,17167,317507875978973,25,26.0,339.56103736797104,0.1,0,0.0,0.0,1.56109798E9,,,,0,,5,
Fix,gps,34.184402,117.185619,174.363037,0.000000,4.900000,1643818291000
Raw,132845965,1327853509000000000,18,,4007,0.8598984933687461,333.564095198152,228.64494350769337,0.0,0,6,220.0,99,932568304,25,26.0,-472.9994989751152,0.1,0,0.0,0.0,1.59975002E9,,,,0,,3,
Raw,132845966,1327853509000000000,18,,4007,0.8598984933687461,333.564095198152,228.64494350769337,0.0,0,5,220.0,16399,317508924989921,10,29.0,-443.312043993501,0.1,0,0.0,0.0,1.57542003E9,,,,0,,1,
Raw,132845968,1327853509000000000,18,,4007,0.8598984933687461,333.564095198152,228.64494350769337,0.0,0,17,220.0,16399,317508922255907,10,33.0,659.5008925592992,0.1,0,0.0,0.0,1.57542003E9,,,,0,,1,
Raw,132845969,1327853509000000000,18,,4007,0.8598984933687461,333.564095198152,228.64494350769337,0.0,0,19,220.0,16399,317508927445929,10,37.0,608.530233433703,0.1,0,0.0,0.0,1.57542003E9,,,,0,,1,
Raw,132845969,1327853509000000000,18,,4007,0.8598984933687461,333.564095198152,228.64494350769337,0.0,0,1,220.0,259,14188825,10,30.0,67.39430053353355,0.1,0,0.0,0.0,1.56109798E9,,,,0,,5,
Raw,132845969,1327853509000000000,18,,4007,0.8598984933687461,333.564095198152,228.64494350769337,0.0,0,19,220.0,33,1241041,25,23.0,586.5408073175962,0.1,0,0.0,0.0,1.60368755E9,,,,0,,3,
Raw,132845970,1327853509000000000,18,,4007,0.8598984933687461,333.564095198152,228.64494350769337,0.0,0,9,220.0,3,4417686,400,10.0,283.00888239755295,0.1,0,0.0,0.0,1.57542003E9,,,,0,,1,
Raw,132845970,1327853509000000000,18,,4007,0.8598984933687461,333.564095198152,228.64494350769337,0.0,0,20,220.0,3,10559405,400,17.0,-168.2766483107116,0.1,0,0.0,0.0,1.57542003E9,,,,0,,1,
Raw,132845971,1327853509000000000,18,,4007,0.8598984933687461,333.564095198152,228.64494350769337,0.0,0,7,220.0,17167,317508873778263,10,29.0,373.0995694123545,0.1,0,0.0,0.0,1.56109798E9,,,,0,,5,
Raw,132845971,1327853509000000000,18,,4007,0.8598984933687461,333.564095198152,228.64494350769337,0.0,0,10,220.0,17167,317508875977841,25,26.0,339.59644980831706,0.1,0,0.0,0.0,1.56109798E9,,,,0,,5,
Fix,gps,34.184402,117.185619,174.363037,0.000000,4.900000,1643818292000
Raw,132846953,1327853510000000000,18,,4242,0.2833167360722655,333.564095198152,227.65461419306874,0.0,0,6,220.0,99,1932569877,25,27.0,-472.8094364066538,0.1,0,0.0,0.0,1.59975002E9,,,,0,,3,
Raw,132846954,1327853510000000000,18,,4242,0.2833167360722655,333.564095198152,227.65461419306874,0.0,0,5,220.0,16399,317509924991394,10,30.0,-443.31752706784755,0.1,0,0.0,0.0,1.57542003E9,,,,0,,1,
Raw,132846954,1327853510000000000,18,,4242,0.2833167360722655,333.564095198152,227.65461419306874,0.0,0,17,220.0,16399,317509922253709,10,33.0,659.6226168097928,0.1,0,0.0,0.0,1.57542003E9,,,,0,,1,
Raw,132846954,1327853510000000000,18,,4242,0.2833167360722655,333.564095198152,227.65461419306874,0.0,0,19,220.0,16399,317509927443899,5,38.0,608.4764993051067,0.1,0,0.0,0.0,1.57542003E9,,,,0,,1,
