     2.11           OBSERVATION DATA    G (GPS)             RINEX VERSION / TYPE
Gnsslog+sensor      Wenlin Yan          2022-02-02 16:10:44 PGM / RUN BY / DATE
HWCOR                                                       MARKER NAME
observer            agency                                  OBSERVER / AGENCY
0                   ****                                    REC # / TYPE / VERS
0                   ****                                    ANT # / TYPE
        0.0000        0.0000        0.0000                  APPROX POSITION XYZ
        0.0000        0.0000        0.0000                  ANTENNA: DELTA H/E/N
1     0                                                     WAVELENGTH FACT L1/2
6         L1    C1    S1    L5    C5    S5                  # / TYPES OF OBSERV
1.000                                                       INTERVAL
  2022     2     2    16    11   19.7667651     GPS         TIME OF FIRST OBS
                                                            END OF HEADER
 22  2  2 16 11 19.7667649  0  3G05G17G19
  22646607.149          27.000  
  23434025.522          35.000  
  21879599.528          37.000  
 22  2  2 16 11 20.7662797  0  3G05G17G19
  22500714.395          28.000  
  23289232.724          36.000  
  21734753.071          37.000  
 22  2  2 16 11 21.7662795  0  3G05G17G19
  22500204.621          30.000  
  23289821.687          35.000  
  21735288.967          38.000  
 22  2  2 16 11 22.7662795  0  3G05G17G19
  22499763.934          30.000  
  23290479.124          33.000  
  21735896.340          37.000  
 22  2  2 16 11 24.0000019  0  3G05G17G19
  22499215.717          30.000  
  23291030.254          33.000  
  21736398.295          37.000  
 22  2  2 16 11 25.0000017  0  3G05G17G19
  22498590.825          29.000  
  23291763.721          34.000  
  21737068.820          37.000  
 22  2  2 16 11 26.0000014  0  3G05G17G19
  22498076.550          28.000  
  23292350.886          33.000  
  21737605.013          37.000  
 22  2  2 16 11 27.0000012  0  3G05G17G19
  22497561.088          27.000  
  23292939.849          32.000  
  21738140.316          37.000  
 22  2  2 16 11 28.0000010  0  3G05G17G19
  22497046.812          26.000  
  23293530.015          34.000  
  21738676.823          37.000  
 22  2  2 16 11 29.0000002  0  3G05G17G19
  22496387.491          26.000  
  23293976.043          35.000  
  21739070.674          37.000  
 22  2  2 16 11 30.0000000  0  3G05G17G19
  22495872.326          27.000  
  23294563.504          35.000  
  21739606.570          37.000  
 22  2  2 16 11 31.0000000  0  3G05G17G19
  22495429.840          28.000  
  23295222.145          34.000  
  21740214.256          37.000  
 22  2  2 16 11 31.9999998  0  3G05G17G19
  22494915.565          29.000  
  23295810.514          33.000  
  21740750.763          37.000  
 22  2  2 16 11 32.9999995  0  3G05G17G19
  22494402.197          30.000  
  23296397.679          33.000  
  21741286.363          38.000  
 22  2  2 16 11 33.9999993  0  3G05G17G19
  22493887.032          30.000  
  23296984.844          33.000  
  21741823.463          37.000  
 22  2  2 16 11 34.9999990  0  3G05G17G19
  22493372.756          29.000  
  23297572.916          34.000  
  21742361.471          37.000  
 22  2  2 16 11 35.9999988  0  3G05G17G19
  22492857.591          29.000  
  23298162.193          34.000  
  21742898.868          37.000  
 22  2  2 16 11 36.9999986  0  3G05G17G19
  22492343.019          28.000  
  23298751.155          35.000  
  21743434.781          37.000  
 22  2  2 16 11 37.9999983  0  3G05G17G19
  22491826.650          27.000  
  23299339.821          34.000  
  21743971.271          36.000  
 22  2  2 16 11 38.9999981  0  3G05G17G19
  22491311.781          28.000  
  23299928.190          34.000  
  21744507.778          37.000  
 22  2  2 16 11 39.9999979  0  3G05G17G19
  22490798.413          27.000  
  23300514.447          33.000  
  21745044.285          37.000  
 22  2  2 16 11 40.9999979  0  3G05G17G19
  22490353.816          25.000  
  23301173.699          32.000  
  21745652.564          37.000  
 22  2  2 16 11 41.9999976  0  3G05G17G19
  22489836.243          27.000  
  23301762.661          33.000  
  21746189.665          38.000  
 22  2  2 16 11 42.9999974  0  3G05G17G19
  22489322.875          26.000  
  23302352.531          34.000  
  21746726.468          38.000  
 22  2  2 16 11 43.9999969  0  3G05G17G19
  22488735.326          28.000  
  23302869.720          35.000  
  21747192.093          37.000  
 22  2  2 16 11 44.9999967  0  3G05G17G19
  22488221.661          29.000  
  23303457.496          35.000  
  21747728.303          37.000  
 22  2  2 16 11 45.9999964  0  3G05G17G19
  22487705.903          29.000  
  23304044.958          35.000  
  21748265.106          37.000  
 22  2  2 16 11 46.9999962  0  3G05G17G19
  22487196.130          30.000  
  23304632.123          34.000  
  21748801.910          37.000  
 22  2  2 16 11 47.9999959  0  3G05G17G19
  22486682.151          30.000  
  23305218.991          34.000  
  21749339.307          37.000  
 22  2  2 16 11 48.9999957  0  3G05G17G19
  22486169.376          29.000  
  23305806.156          33.000  
  21749876.704          37.000  
 22  2  2 16 11 49.9999955  0  3G05G17G19
  22485656.305          30.000  
  23306393.635          33.000  
  21750413.804          38.000  
 22  2  2 16 11 50.9999955  0  3G05G17G19
  22485214.710          28.000  
  23307054.963          34.000  
  21751022.084          38.000  
 22  2  2 16 11 51.9999952  0  3G05G17G19
  22484697.747          29.000  
  23307644.536          35.000  
  21751558.887          38.000  
 22  2  2 16 11 52.9999950  0  3G05G17G19
  22484181.674          28.000  
  23308232.905          35.000  
  21752096.302          37.000  
 22  2  2 16 11 53.9999948  0  3G05G17G19
  22483665.322          27.000  
  23308820.070          35.000  
  21752633.699          37.000  
 22  2  2 16 11 54.9999945  0  3G05G17G19
  22483151.640          27.000  
  23309406.939          34.000  
  21753171.706          37.000  
 22  2  2 16 11 55.9999943  0  3G05G17G19
  22482637.382          28.000  
  23309995.604          33.000  
  21753708.510          37.000  
 22  2  2 16 11 56.9999940  0  3G05G17G19
  22482123.700          29.000  
  23310584.881          32.000  
  21754245.610          38.000  
 22  2  2 16 11 57.9999938  0  3G05G17G19
  22481610.332          30.000  
  23311174.436          33.000  
  21754783.600          38.000  
 22  2  2 16 11 58.9999933  0  3G05G17G19
  22481025.488          30.000  
  23311691.626          34.000  
  21755249.835          38.000  
 22  2  2 16 11 59.9999931  0  3G05G17G19
  22480513.621          30.000  
  23312281.792          34.000  
  21755788.140          37.000  
 22  2  2 16 12  0.9999931  0  3G05G17G19
  22480074.120          30.000  
  23312942.545          35.000  
  21756397.920          37.000  
 22  2  2 16 12  1.9999928  0  3G05G17G19
  22479561.642          30.000  
  23313531.507          34.000  
  21756935.910          37.000  
 22  2  2 16 12  2.9999926  0  3G05G17G19
  22479048.274          28.000  
  23314119.579          34.000  
  21757474.808          37.000  
 22  2  2 16 12  3.9999924  0  3G05G17G19
  22478532.515          28.000  
  23314707.634          33.000  
  21758013.409          38.000  
 22  2  2 16 12  4.9999921  0  3G05G17G19
  22478017.350          26.000  
  23315295.706          33.000  
  21758552.010          38.000  
 22  2  2 16 12  5.9999919  0  3G05G17G19
  22477501.574          26.000  
  23315884.669          34.000  
  21759090.628          38.000  
 22  2  2 16 12  6.9999917  0  3G05G17G19
  22476986.112          26.000  
  23316475.132          34.000  
  21759629.229          37.000  
 22  2  2 16 12  7.9999914  0  3G05G17G19
  22476473.041          28.000  
  23317066.206          34.000  
  21760168.423          37.000  
 22  2  2 16 12  8.9999912  0  3G05G17G19
  22475961.767          30.000  
  23317654.871          34.000  
  21760707.024          37.000  
 22  2  2 16 12  9.9999909  0  3G05G17G19
  22475452.290          32.000  
  23318242.944          34.000  
  21761245.329          37.000  
 22  2  2 16 12 10.9999909  0  3G05G17G19
  22475010.992          32.000  
  23318904.289          33.000  
  21761855.999          37.000  
 22  2  2 16 12 11.9999907  0  3G05G17G19
  22474497.920          32.000  
  23319494.142          33.000  
  21762394.303          38.000  
 22  2  2 16 12 12.9999905  0  3G05G17G19
  22473985.756          30.000  
  23320084.308          33.000  
  21762934.108          38.000  
 22  2  2 16 12 13.9999900  0  3G05G17G19
  22473399.412          29.000  
  23320603.295          34.000  
  21763402.123          38.000  
 22  2  2 16 12 14.9999897  0  3G05G17G19
  22472883.932          26.000  
  23321194.072          34.000  
  21763941.632          38.000  
 22  2  2 16 12 15.9999895  0  3G05G17G19
  22472370.878          25.000  
  23321783.331          34.000  
  21764481.437          38.000  
 22  2  2 16 12 16.9999893  0  3G05G17G19
  22471859.290          25.000  
  23322373.794          34.000  
  21765020.928          37.000  
 22  2  2 16 12 17.9999890  0  3G05G17G19
  22471348.034          27.000  
  23322963.367          33.000  
  21765560.436          37.000  
 22  2  2 16 12 18.9999888  0  3G05G17G19
  22470841.245          29.000  
  23323553.830          33.000  
  21766099.927          37.000  
 22  2  2 16 12 19.9999886  0  3G05G17G19
  22470334.176          30.000  
  23324143.403          34.000  
  21766639.435          37.000  
 22  2  2 16 12 20.9999886  0  3G05G17G19
  22469894.082          30.000  
  23324804.749          34.000  
  21767251.310          38.000  
 22  2  2 16 12 21.9999883  0  3G05G17G19
  22469381.307          31.000  
  23325396.102          34.000  
  21767791.708          38.000  
 22  2  2 16 12 22.9999881  0  3G05G17G19
  22468868.550          30.000  
  23325986.565          34.000  
  21768330.920          38.000  
 22  2  2 16 12 23.9999878  0  3G05G17G19
  22468356.369          30.000  
  23326575.231          34.000  
  21768870.707          38.000  
 22  2  2 16 12 24.9999876  0  3G05G17G19
  22467844.501          28.000  
  23327164.804          34.000  
  21769411.123          38.000  
 22  2  2 16 12 25.9999874  0  3G05G17G19
  22467333.821          27.000  
  23327754.377          33.000  
  21769951.818          38.000  
 22  2  2 16 12 26.9999871  0  3G05G17G19
  22466818.655          26.000  
  23328344.840          32.000  
  21770492.513          38.000  
 22  2  2 16 12 27.9999869  0  3G05G17G19
  22466306.788          27.000  
  23328936.803          34.000  
  21771033.208          38.000  
 22  2  2 16 12 28.9999864  0  3G05G17G19
  22465724.038          28.000  
  23329455.494          33.000  
  21771502.445          37.000  
 22  2  2 16 12 29.9999862  0  3G05G17G19
  22465212.764          29.000  
  23330046.253          33.000  
  21772043.733          37.000  
 22  2  2 16 12 30.9999862  0  3G05G17G19
  22464773.577          30.000  
  23330711.491          34.000  
  21772656.515          38.000  
 22  2  2 16 12 31.9999859  0  3G05G17G19
  22464264.101          30.000  
  23331303.158          35.000  
  21773197.210          38.000  
 22  2  2 16 12 32.9999857  0  3G05G17G19
  22463752.827          31.000  
  23331893.324          35.000  
  21773737.922          38.000  
 22  2  2 16 12 33.9999855  0  3G05G17G19
  22463242.460          30.000  
  23332482.897          34.000  
  21774279.210          38.000  
 22  2  2 16 12 34.9999852  0  3G05G17G19
  22462731.483          29.000  
  23333073.953          33.000  
  21774819.923          38.000  
 22  2  2 16 12 35.9999850  0  3G05G17G19
  22462219.616          29.000  
  23333664.120          33.000  
  21775361.508          38.000  
 22  2  2 16 12 36.9999847  0  3G05G17G19
  22461706.544          28.000  
  23334253.693          33.000  
  21775902.517          37.000  
 22  2  2 16 12 37.9999845  0  3G05G17G19
  22461192.880          27.000  
  23334844.749          33.000  
  21776443.805          37.000  
 22  2  2 16 12 38.9999843  0  3G05G17G19
  22460683.700          26.000  
  23335436.120          33.000  
  21776986.018          38.000  
 22  2  2 16 12 39.9999840  0  3G05G17G19
  22460172.426          27.000  
  23336027.490          34.000  
  21777527.010          38.000  
 22  2  2 16 12 40.9999840  0  3G05G17G19
  22459732.925          28.000  
  23336688.522          34.000  
  21778139.792          38.000  
 22  2  2 16 12 41.9999838  0  3G05G17G19
  22459222.261          30.000  
  23337280.800          32.000  
  21778681.080          38.000  
 22  2  2 16 12 42.9999835  0  3G05G17G19
  22458713.692          31.000  
  23337870.966          33.000  
  21779223.293          38.000  
 22  2  2 16 12 43.9999831  0  3G05G17G19
  22458133.333          31.000  
  23338391.750          33.000  
  21779693.716          38.000  
 22  2  2 16 12 44.9999828  0  3G05G17G19
  22457622.670          31.000  
  23338983.417          33.000  
  21780235.615          38.000  
 22  2  2 16 12 45.9999826  0  3G05G17G19
  22457113.490          30.000  
  23339576.271          33.000  
  21780777.514          38.000  
 22  2  2 16 12 46.9999824  0  3G05G17G19
  22456603.717          29.000  
  23340169.439          34.000  
  21781319.414          38.000  
 22  2  2 16 12 47.9999821  0  3G05G17G19
  22456089.145          27.000  
  23340761.402          34.000  
  21781861.313          38.000  
 22  2  2 16 12 48.9999819  0  2G17G19
  23341351.866          33.000  
  21782404.102          38.000  
 22  2  2 16 12 49.9999816  0  3G05G17G19
  22455069.598          24.000  
  23341941.735          32.000  
  21782946.297          37.000  
 22  2  2 16 12 50.9999816  0  3G05G17G19
  22454631.615          27.000  
  23342604.878          33.000  
  21783560.283          38.000  
 22  2  2 16 12 51.9999814  0  3G05G17G19
  22454121.842          29.000  
  23343197.139          32.000  
  21784102.776          38.000  
 22  2  2 16 12 52.9999812  0  3G05G17G19
  22453613.255          30.000  
  23343789.399          32.000  
  21784645.285          38.000  
 22  2  2 16 12 53.9999809  0  3G05G17G19
  22453111.282          32.000  
  23344384.364          33.000  
  21785188.074          38.000  
 22  2  2 16 12 54.9999807  0  3G05G17G19
  22452602.417          31.000  
  23344977.532          35.000  
  21785730.881          38.000  
 22  2  2 16 12 55.9999804  0  3G05G17G19
  22452092.033          31.000  
  23345571.887          34.000  
  21786273.967          38.000  
 22  2  2 16 12 56.9999802  0  3G05G17G19
  22451582.259          31.000  
  23346165.054          34.000  
  21786816.476          38.000  
 22  2  2 16 12 57.9999800  0  3G05G17G19
  22451070.986          29.000  
  23346756.128          34.000  
  21787359.265          38.000  
 22  2  2 16 12 58.9999795  0  3G05G17G19
  22450484.344          26.000  
  23347275.115          33.000  
  21787830.892          38.000  
 22  2  2 16 12 59.9999793  0  3G05G17G19
  22449971.273          26.000  
  23347865.875          32.000  
  21788373.699          38.000  
 22  2  2 16 13  0.9999793  0  3G05G17G19
  22449534.180          26.000  
  23348528.425          32.000  
  21788988.575          38.000  
 22  2  2 16 13  1.9999790  0  3G05G17G19
  22449025.907          27.000  
  23349120.982          32.000  
  21789531.957          37.000  
 22  2  2 16 13  2.9999788  0  3G05G17G19
  22448516.431          30.000  
  23349714.743          33.000  
  21790075.968          37.000  
 22  2  2 16 13  3.9999785  0  3G05G17G19
  22448007.565          30.000  
  23350307.911          34.000  
  21790619.664          37.000  
 22  2  2 16 13  4.9999783  0  3G05G17G19
  22447502.887          30.000  
  23350901.078          34.000  
  21791163.361          37.000  
 22  2  2 16 13  5.9999781  0  3G05G17G19
  22446994.318          31.000  
  23351494.543          34.000  
  21791707.964          38.000  
 22  2  2 16 13  6.9999778  0  3G05G17G19
  22446487.232          30.000  
  23352085.599          33.000  
  21792252.254          38.000  
 22  2  2 16 13  7.9999776  0  3G05G17G19
  22445980.164          30.000  
  23352677.563          32.000  
  21792796.247          38.000  
 22  2  2 16 13  8.9999774  0  3G05G17G19
  22445468.890          29.000  
  23353272.528          33.000  
  21793340.240          38.000  
 22  2  2 16 13  9.9999771  0  3G05G17G19
  22444958.820          27.000  
  23353868.087          34.000  
  21793883.954          38.000  
 22  2  2 16 13 10.9999769  0  3G05G17G19
  22444448.139          26.000  
  23354460.364          34.000  
  21794427.651          37.000  
 22  2  2 16 13 11.9999769  0  3G05G17G19
  22444010.453          26.000  
  23355125.602          33.000  
  21795043.416          37.000  
 22  2  2 16 13 12.9999766  0  3G05G17G19
  22443503.367          28.000  
  23355716.658          31.000  
  21795587.724          37.000  
 22  2  2 16 13 13.9999762  0  3G05G17G19
  22442922.432          29.000  
  23356238.943          31.000  
  21796060.537          37.000  
 22  2  2 16 13 14.9999759  0  3G05G17G19
  22442414.753          30.000  
  23356831.221          32.000  
  21796604.827          37.000  
 22  2  2 16 13 15.9999757  0  3G05G17G19
  22441906.777          30.000  
  23357425.872          33.000  
  21797149.431          38.000  
 22  2  2 16 13 16.9999754  0  3G05G17G19
  22441398.504          31.000  
  23358020.540          34.000  
  21797694.925          38.000  
 22  2  2 16 13 17.9999752  0  3G05G17G19
  22440892.326          29.000  
  23358614.598          34.000  
  21798239.825          38.000  
 22  2  2 16 13 18.9999750  0  3G05G17G19
  22440385.257          28.000  
  23359206.265          33.000  
  21798785.022          38.000  
 22  2  2 16 13 19.9999747  0  3G05G17G19
  22439877.578          28.000  
  23359798.229          32.000  
  21799329.626          37.000  
 22  2  2 16 13 20.9999745  0  3G05G17G19
  22439367.805          27.000  
  23360390.193          31.000  
  21799874.823          37.000  
 22  2  2 16 13 21.9999745  0  3G05G17G19
  22438932.509          27.000  
  23361055.133          31.000  
  21800491.200          37.000  
 22  2  2 16 13 22.9999743  0  3G05G17G19
  22438423.626          27.000  
  23361650.098          32.000  
  21801036.083          37.000  
 22  2  2 16 13 23.9999740  0  3G05G17G19
  22437915.668          28.000  
  23362244.767          33.000  
  21801580.984          37.000  
 22  2  2 16 13 24.9999738  0  3G05G17G19
  22437408.285          29.000  
  23362839.418          34.000  
  21802126.181          38.000  
 22  2  2 16 13 25.9999735  0  3G05G17G19
  22436902.718          30.000  
  23363431.992          34.000  
  21802671.081          38.000  
 22  2  2 16 13 26.9999733  0  3G05G17G19
  22436397.132          30.000  
  23364024.550          33.000  
  21803216.872          38.000  
 22  2  2 16 13 27.9999731  0  3G05G17G19
  22435890.361          30.000  
  23364617.717          32.000  
  21803761.475          38.000  
 22  2  2 16 13 28.9999726  0  3G05G17G19
  22435310.909          29.000  
  23365137.612          32.000  
  21804236.086          37.000  
 22  2  2 16 13 29.9999723  0  3G05G17G19
  22434802.339          28.000  
  23365731.076          31.000  
  21804782.191          37.000  
 22  2  2 16 13 30.9999721  0  3G05G17G19
  22434294.364          28.000  
  23366326.338          31.000  
  21805327.982          37.000  
 22  2  2 16 13 31.9999721  0  3G05G17G19
  22433860.865          28.000  
  23366993.966          32.000  
  21805944.969          37.000  
 22  2  2 16 13 32.9999719  0  3G05G17G19
  22433354.390          28.000  
  23367588.634          33.000  
  21806491.353          37.000  
 22  2  2 16 13 33.9999716  0  3G05G17G19
  22432847.618          29.000  
  23368183.896          33.000  
  21807037.161          37.000  
 22  2  2 16 13 34.9999714  0  3G05G17G19
  22432341.440          29.000  
  23368777.954          33.000  
  21807583.248          38.000  
 22  2  2 16 13 35.9999712  0  3G05G17G19
  22431833.464          28.000  
  23369370.214          33.000  
  21808129.038          38.000  
 22  2  2 16 13 36.9999709  0  3G05G17G19
  22431325.488          29.000  
  23369965.179          31.000  
  21808675.439          38.000  
 22  2  2 16 13 37.9999707  0  3G05G17G19
  22430819.310          30.000  
  23370559.255          31.000  
  21809222.137          38.000  
 22  2  2 16 13 38.9999704  0  3G05G17G19
  22430311.945          30.000  
  23371156.000          32.000  
  21809769.725          37.000  
 22  2  2 16 13 39.9999702  0  3G05G17G19
  22429804.562          30.000  
  23371751.279          32.000  
  21810316.126          37.000  
 22  2  2 16 13 40.9999700  0  3G05G17G19
  22429297.197          29.000  
  23372345.633          34.000  
  21810862.527          37.000  
 22  2  2 16 13 41.9999697  0  3G05G17G19
  22428791.315          28.000  
  23372940.302          33.000  
  21811409.522          37.000  
 22  2  2 16 13 42.9999697  0  3G05G17G19
  22428359.911          28.000  
  23373604.632          32.000  
  21812028.586          37.000  
 22  2  2 16 13 43.9999692  0  3G05G17G19
  22427783.164          28.000  
  23374127.231          31.000  
  21812504.104          38.000  
 22  2  2 16 13 44.9999690  0  3G05G17G19
  22427276.392          28.000  
  23374722.789          31.000  
  21813050.506          38.000  
 22  2  2 16 13 45.9999688  0  3G05G17G19
  22426769.620          28.000  
  23375317.755          31.000  
  21813596.907          37.000  
 22  2  2 16 13 46.9999685  0  3G05G17G19
  22426262.831          28.000  
  23375913.016          31.000  
  21814143.605          37.000  
 22  2  2 16 13 47.9999683  0  3G05G17G19
  22425757.263          27.000  
  23376510.076          33.000  
  21814690.599          37.000  
 22  2  2 16 13 48.9999681  0  3G05G17G19
  22425251.696          28.000  
  23377105.931          34.000  
  21815238.187          37.000  
 22  2  2 16 13 49.9999678  0  3G05G17G19
  22424747.018          29.000  
  23377701.489          33.000  
  21815784.885          37.000  
 22  2  2 16 13 50.9999676  0  3G05G17G19
  22424241.136          28.000  
  23378296.454          32.000  
  21816332.490          37.000  
 22  2  2 16 13 51.9999673  0  3G05G17G19
  22423736.755          29.000  
  23378892.013          31.000  
  21816880.078          37.000  
 22  2  2 16 13 52.9999671  0  3G05G17G19
  22423230.594          28.000  
  23379487.275          31.000  
  21817427.980          38.000  
 22  2  2 16 13 53.9999671  0  3G05G17G19
  22422795.595          29.000  
  23380155.513          30.000  
  21818046.451          38.000  
 22  2  2 16 13 54.9999669  0  3G05G17G19
  22422289.713          28.000  
  23380751.386          31.000  
  21818594.946          37.000  
 22  2  2 16 13 55.9999666  0  3G05G17G19
  22421783.238          28.000  
  23381347.241          33.000  
  21819143.441          37.000  
 22  2  2 16 13 56.9999664  0  3G05G17G19
  22421277.967          29.000  
  23381943.114          33.000  
  21819692.530          37.000  
 22  2  2 16 13 57.9999661  0  3G05G17G19
  22420773.289          29.000  
  23382537.468          33.000  
  21820241.025          37.000  
 22  2  2 16 13 58.9999657  0  3G05G17G19
  22420195.931          28.000  
  23383059.160          31.000  
  21820717.451          37.000  
 22  2  2 16 13 59.9999654  0  3G05G17G19
  22419690.364          29.000  
  23383652.921          31.000  
  21821265.632          37.000  
 22  2  2 16 14  0.9999652  0  3G05G17G19
  22419182.388          28.000  
  23384248.479          31.000  
  21821814.127          38.000  
 22  2  2 16 14  1.9999650  0  3G05G17G19
  22418678.303          29.000  
  23384844.649          32.000  
  21822362.919          37.000  
 22  2  2 16 14  2.9999647  0  3G05G17G19
  22418173.626          29.000  
  23385441.411          32.000  
  21822910.821          37.000  
 22  2  2 16 14  3.9999645  0  3G05G17G19
  22417669.262          29.000  
  23386037.266          33.000  
  21823459.613          37.000  
 22  2  2 16 14  4.9999645  0  3G05G17G19
  22417234.263          29.000  
  23386705.505          33.000  
  21824078.991          36.000  
 22  2  2 16 14  5.9999642  0  3G05G17G19
  22416728.381          30.000  
  23387302.564          33.000  
  21824627.189          37.000  
 22  2  2 16 14  6.9999640  0  3G05G17G19
  22416223.110          29.000  
  23387899.030          32.000  
  21825176.871          37.000  
 22  2  2 16 14  7.9999638  0  3G05G17G19
  22415719.322          29.000  
  23388495.793          31.000  
  21825725.367          37.000  
 22  2  2 16 14  8.9999635  0  3G05G17G19
  22415215.255          28.000  
  23389092.241          31.000  
  21826274.158          37.000  
 22  2  2 16 14  9.9999633  0  3G05G17G19
  22414711.782          28.000  
  23389688.707          31.000  
  21826822.968          37.000  
 22  2  2 16 14 10.9999630  0  3G05G17G19
  22414206.493          27.000  
  23390284.876          32.000  
  21827372.056          37.000  
 22  2  2 16 14 11.9999628  0  3G05G17G19
  22413701.815          27.000  
  23390881.342          33.000  
  21827920.848          37.000  
 22  2  2 16 14 12.9999626  0  3G05G17G19
  22413198.952          27.000  
  23391478.401          32.000  
  21828469.640          37.000  
 22  2  2 16 14 13.9999621  0  3G05G17G19
  22412626.097          28.000  
  23392003.077          33.000  
  21828947.863          37.000  
 22  2  2 16 14 14.9999619  0  3G05G17G19
  22412122.012          29.000  
  23392599.839          32.000  
  21829497.249          36.000  
 22  2  2 16 14 15.9999619  0  3G05G17G19
  22411690.311          29.000  
  23393267.781          32.000  
  21830118.721          37.000  
 22  2  2 16 14 16.9999616  0  3G05G17G19
  22411187.134          30.000  
  23393864.841          31.000  
  21830668.420          37.000  
 22  2  2 16 14 17.9999614  0  3G05G17G19
  22410680.956          29.000  
  23394461.010          31.000  
  21831218.713          37.000  
 22  2  2 16 14 18.9999611  0  3G05G17G19
  22410177.482          29.000  
  23395056.568          31.000  
  21831768.708          37.000  
 22  2  2 16 14 19.9999609  0  3G05G17G19
  22409675.509          29.000  
  23395654.221          31.000  
  21832318.408          37.000  
 22  2  2 16 14 20.9999607  0  3G05G17G19
  22409172.036          28.000  
  23396251.280          33.000  
  21832868.386          37.000  
 22  2  2 16 14 21.9999604  0  3G05G17G19
  22408668.544          28.000  
  23396850.747          34.000  
  21833418.086          37.000  
 22  2  2 16 14 22.9999602  0  3G05G17G19
  22408163.867          28.000  
  23397447.510          33.000  
  21833969.286          37.000  
 22  2  2 16 14 23.9999599  0  3G05G17G19
  22407661.300          27.000  
  23398042.772          32.000  
  21834520.172          36.000  
 22  2  2 16 14 24.9999597  0  3G05G17G19
  22407156.623          28.000  
  23398638.330          30.000  
  21835070.168          36.000  
 22  2  2 16 14 25.9999597  0  3G05G17G19
  22406724.625          28.000  
  23399306.866          29.000  
  21835691.343          37.000  
 22  2  2 16 14 26.9999595  0  3G05G17G19
  22406219.651          29.000  
  23399904.536          31.000  
  21836242.822          37.000  
 22  2  2 16 14 27.9999592  0  3G05G17G19
  22405716.770          29.000  
  23400503.095          31.000  
  21836792.521          37.000  
 22  2  2 16 14 28.9999588  0  3G05G17G19
  22405142.414          30.000  
  23401030.179          32.000  
  21837271.635          37.000  
 22  2  2 16 14 29.9999585  0  3G05G17G19
  22404640.127          29.000  
  23401627.832          33.000  
  21837822.538          36.000  
 22  2  2 16 14 30.9999583  0  3G05G17G19
  22404135.763          28.000  
  23402225.188          33.000  
  21838373.721          36.000  
 22  2  2 16 14 31.9999580  0  3G05G17G19
  22403630.789          27.000  
  23402821.950          32.000  
  21838924.327          36.000  
 22  2  2 16 14 32.9999578  0  3G05G17G19
  22403124.907          26.000  
  23403418.713          31.000  
  21839475.213          36.000  
 22  2  2 16 14 33.9999576  0  3G05G17G19
  22402622.637          26.000  
  23404012.788          30.000  
  21840026.099          37.000  
 22  2  2 16 14 34.9999573  0  3G05G17G19
  22402120.054          27.000  
  23404610.737          30.000  
  21840576.706          37.000  
 22  2  2 16 14 35.9999571  0  3G05G17G19
  22401618.377          29.000  
  23405209.297          31.000  
  21841127.592          37.000  
 22  2  2 16 14 36.9999571  0  3G05G17G19
  22401186.380          30.000  
  23405879.944          32.000  
  21841751.158          37.000  
 22  2  2 16 14 37.9999568  0  3G05G17G19
  22400686.797          30.000  
  23406478.800          33.000  
  21842301.747          37.000  
 22  2  2 16 14 38.9999566  0  3G05G17G19
  22400183.917          30.000  
  23407076.156          33.000  
  21842852.040          37.000  
 22  2  2 16 14 39.9999564  0  3G05G17G19
  22399680.147          30.000  
  23407674.419          32.000  
  21843403.240          37.000  
 22  2  2 16 14 40.9999561  0  3G05G17G19
  22399176.062          29.000  
  23408271.479          31.000  
  21843954.126          36.000  
 22  2  2 16 14 41.9999559  0  3G05G17G19
  22398672.589          28.000  
  23408868.538          31.000  
  21844506.233          36.000  
 22  2  2 16 14 42.9999557  0  3G05G17G19
  22398169.411          27.000  
  23409467.709          31.000  
  21845057.712          36.000  
 22  2  2 16 14 43.9999552  0  2G17G19
  23409995.386          31.000  
  21845538.640          37.000  
 22  2  2 16 14 44.9999549  0  3G05G17G19
  22397095.473          26.000  
  23410593.649          31.000  
  21846091.027          37.000  
 22  2  2 16 14 45.9999547  0  3G05G17G19
  22396593.500          27.000  
  23411192.802          32.000  
  21846643.117          37.000  
 22  2  2 16 14 46.9999545  0  3G05G17G19
  22396092.713          28.000  
  23411791.659          31.000  
  21847195.207          37.000  
 22  2  2 16 14 47.9999545  0  3G05G17G19
  22395668.219          30.000  
  23412461.101          32.000  
  21847818.476          37.000  
 22  2  2 16 14 48.9999542  0  3G05G17G19
  22395166.229          30.000  
  23413060.255          32.000  
  21848370.270          37.000  
 22  2  2 16 14 49.9999540  0  3G05G17G19
  22394665.460          30.000  
  23413658.518          31.000  
  21848923.267          36.000  
 22  2  2 16 14 50.9999537  0  3G05G17G19
  22394164.377          30.000  
  23414256.781          31.000  
  21849475.061          36.000  
